[{"RegionName":"United States","StateName":null,"cbsa_code":"102001","zhvi_current":370320.23,"zori_rent":1950.87,"z_inventory":1299908.0,"z_price_cuts_pct":0.23,"z_sale_to_list":0.98,"z_new_listings":411351.0,"price_to_rent":15.82,"payment_vs_rent":null,"gross_rental_yield":6.32,"state_abbr":null,"_lat":null,"_lon":null},{"RegionName":"New York, NY","StateName":"NY","cbsa_code":"394913","zhvi_current":727625.49,"zori_rent":3502.82,"z_inventory":45297.0,"z_price_cuts_pct":0.14,"z_sale_to_list":1.01,"z_new_listings":15655.0,"price_to_rent":17.31,"payment_vs_rent":null,"gross_rental_yield":5.78,"state_abbr":"NY","_lat":40.75,"_lon":-74.0},{"RegionName":"Los Angeles, CA","StateName":"CA","cbsa_code":"753899","zhvi_current":968608.41,"zori_rent":2908.54,"z_inventory":24355.0,"z_price_cuts_pct":0.21,"z_sale_to_list":1.0,"z_new_listings":8231.0,"price_to_rent":27.75,"payment_vs_rent":null,"gross_rental_yield":3.6,"state_abbr":"CA","_lat":33.97,"_lon":-118.25},{"RegionName":"Chicago, IL","StateName":"IL","cbsa_code":"394463","zhvi_current":353998.24,"zori_rent":2265.54,"z_inventory":21664.0,"z_price_cuts_pct":0.2,"z_sale_to_list":1.0,"z_new_listings":10291.0,"price_to_rent":13.02,"payment_vs_rent":null,"gross_rental_yield":7.68,"state_abbr":"IL","_lat":41.89,"_lon":-87.62},{"RegionName":"Dallas, TX","StateName":"TX","cbsa_code":"394514","zhvi_current":366823.21,"zori_rent":1678.45,"z_inventory":34548.0,"z_price_cuts_pct":0.29,"z_sale_to_list":0.98,"z_new_listings":10625.0,"price_to_rent":18.21,"payment_vs_rent":null,"gross_rental_yield":5.49,"state_abbr":"TX","_lat":32.79,"_lon":-96.8},{"RegionName":"Houston, TX","StateName":"TX","cbsa_code":"394692","zhvi_current":308305.81,"zori_rent":1639.13,"z_inventory":36651.0,"z_price_cuts_pct":0.26,"z_sale_to_list":0.97,"z_new_listings":9209.0,"price_to_rent":15.67,"payment_vs_rent":null,"gross_rental_yield":6.38,"state_abbr":"TX","_lat":29.77,"_lon":-95.37},{"RegionName":"Washington, DC","StateName":"VA","cbsa_code":"395209","zhvi_current":583012.94,"zori_rent":2416.49,"z_inventory":17423.0,"z_price_cuts_pct":0.23,"z_sale_to_list":1.0,"z_new_listings":8181.0,"price_to_rent":20.11,"payment_vs_rent":null,"gross_rental_yield":4.97,"state_abbr":"VA","_lat":38.71,"_lon":-78.16},{"RegionName":"Philadelphia, PA","StateName":"PA","cbsa_code":"394974","zhvi_current":390463.02,"zori_rent":1913.62,"z_inventory":15288.0,"z_price_cuts_pct":0.21,"z_sale_to_list":0.99,"z_new_listings":7015.0,"price_to_rent":17.0,"payment_vs_rent":null,"gross_rental_yield":5.88,"state_abbr":"PA","_lat":40.12,"_lon":-75.01},{"RegionName":"Miami, FL","StateName":"FL","cbsa_code":"394856","zhvi_current":475622.0,"zori_rent":2693.42,"z_inventory":52594.0,"z_price_cuts_pct":0.2,"z_sale_to_list":0.95,"z_new_listings":9304.0,"price_to_rent":14.72,"payment_vs_rent":null,"gross_rental_yield":6.8,"state_abbr":"FL","_lat":25.78,"_lon":-80.2},{"RegionName":"Atlanta, GA","StateName":"GA","cbsa_code":"394347","zhvi_current":382937.59,"zori_rent":1839.98,"z_inventory":32204.0,"z_price_cuts_pct":0.27,"z_sale_to_list":0.98,"z_new_listings":8990.0,"price_to_rent":17.34,"payment_vs_rent":null,"gross_rental_yield":5.77,"state_abbr":"GA","_lat":33.76,"_lon":-84.39},{"RegionName":"Boston, MA","StateName":"MA","cbsa_code":"394404","zhvi_current":741868.44,"zori_rent":3211.06,"z_inventory":10977.0,"z_price_cuts_pct":0.17,"z_sale_to_list":1.01,"z_new_listings":5837.0,"price_to_rent":19.25,"payment_vs_rent":null,"gross_rental_yield":5.19,"state_abbr":"MA","_lat":42.36,"_lon":-71.07},{"RegionName":"Phoenix, AZ","StateName":"AZ","cbsa_code":"394976","zhvi_current":448352.35,"zori_rent":1741.75,"z_inventory":26582.0,"z_price_cuts_pct":0.34,"z_sale_to_list":0.98,"z_new_listings":7354.0,"price_to_rent":21.45,"payment_vs_rent":null,"gross_rental_yield":4.66,"state_abbr":"AZ","_lat":33.45,"_lon":-112.07},{"RegionName":"San Francisco, CA","StateName":"CA","cbsa_code":"395057","zhvi_current":1149215.36,"zori_rent":3257.59,"z_inventory":8425.0,"z_price_cuts_pct":0.18,"z_sale_to_list":1.07,"z_new_listings":3805.0,"price_to_rent":29.4,"payment_vs_rent":null,"gross_rental_yield":3.4,"state_abbr":"CA","_lat":37.62,"_lon":-122.38},{"RegionName":"Riverside, CA","StateName":"CA","cbsa_code":"395025","zhvi_current":585378.11,"zori_rent":2519.14,"z_inventory":16660.0,"z_price_cuts_pct":0.23,"z_sale_to_list":0.99,"z_new_listings":4775.0,"price_to_rent":19.36,"payment_vs_rent":null,"gross_rental_yield":5.16,"state_abbr":"CA","_lat":33.99,"_lon":-117.37},{"RegionName":"Detroit, MI","StateName":"MI","cbsa_code":"394532","zhvi_current":269079.97,"zori_rent":1499.93,"z_inventory":13350.0,"z_price_cuts_pct":0.22,"z_sale_to_list":0.99,"z_new_listings":5478.0,"price_to_rent":14.95,"payment_vs_rent":null,"gross_rental_yield":6.69,"state_abbr":"MI","_lat":42.35,"_lon":-83.06},{"RegionName":"Seattle, WA","StateName":"WA","cbsa_code":"395078","zhvi_current":750279.19,"zori_rent":2231.77,"z_inventory":11837.0,"z_price_cuts_pct":0.27,"z_sale_to_list":1.0,"z_new_listings":5268.0,"price_to_rent":28.02,"payment_vs_rent":null,"gross_rental_yield":3.57,"state_abbr":"WA","_lat":47.61,"_lon":-122.33},{"RegionName":"Minneapolis, MN","StateName":"MN","cbsa_code":"394865","zhvi_current":393773.95,"zori_rent":1720.81,"z_inventory":11577.0,"z_price_cuts_pct":0.2,"z_sale_to_list":1.0,"z_new_listings":5270.0,"price_to_rent":19.07,"payment_vs_rent":null,"gross_rental_yield":5.24,"state_abbr":"MN","_lat":44.98,"_lon":-93.27},{"RegionName":"San Diego, CA","StateName":"CA","cbsa_code":"395056","zhvi_current":946365.28,"zori_rent":2951.21,"z_inventory":7607.0,"z_price_cuts_pct":0.23,"z_sale_to_list":0.99,"z_new_listings":2882.0,"price_to_rent":26.72,"payment_vs_rent":null,"gross_rental_yield":3.74,"state_abbr":"CA","_lat":32.72,"_lon":-117.16},{"RegionName":"Tampa, FL","StateName":"FL","cbsa_code":"395148","zhvi_current":360737.73,"zori_rent":2017.53,"z_inventory":22663.0,"z_price_cuts_pct":0.31,"z_sale_to_list":0.97,"z_new_listings":5566.0,"price_to_rent":14.9,"payment_vs_rent":null,"gross_rental_yield":6.71,"state_abbr":"FL","_lat":27.94,"_lon":-82.45},{"RegionName":"Denver, CO","StateName":"CO","cbsa_code":"394530","zhvi_current":573221.04,"zori_rent":1909.94,"z_inventory":14158.0,"z_price_cuts_pct":0.31,"z_sale_to_list":0.99,"z_new_listings":5247.0,"price_to_rent":25.01,"payment_vs_rent":null,"gross_rental_yield":4.0,"state_abbr":"CO","_lat":39.75,"_lon":-105.06},{"RegionName":"Baltimore, MD","StateName":"MD","cbsa_code":"394358","zhvi_current":405877.48,"zori_rent":1918.66,"z_inventory":7932.0,"z_price_cuts_pct":0.24,"z_sale_to_list":1.0,"z_new_listings":3578.0,"price_to_rent":17.63,"payment_vs_rent":null,"gross_rental_yield":5.67,"state_abbr":"MD","_lat":39.29,"_lon":-76.63},{"RegionName":"St. Louis, MO","StateName":"MO","cbsa_code":"395121","zhvi_current":276877.7,"zori_rent":1451.31,"z_inventory":7679.0,"z_price_cuts_pct":0.22,"z_sale_to_list":0.99,"z_new_listings":3620.0,"price_to_rent":15.9,"payment_vs_rent":null,"gross_rental_yield":6.29,"state_abbr":"MO","_lat":null,"_lon":null},{"RegionName":"Orlando, FL","StateName":"FL","cbsa_code":"394943","zhvi_current":387733.07,"zori_rent":1976.93,"z_inventory":16455.0,"z_price_cuts_pct":0.26,"z_sale_to_list":0.97,"z_new_listings":3919.0,"price_to_rent":16.34,"payment_vs_rent":null,"gross_rental_yield":6.12,"state_abbr":"FL","_lat":28.54,"_lon":-81.37},{"RegionName":"Charlotte, NC","StateName":"NC","cbsa_code":"394458","zhvi_current":390320.99,"zori_rent":1739.72,"z_inventory":13321.0,"z_price_cuts_pct":0.26,"z_sale_to_list":0.98,"z_new_listings":4113.0,"price_to_rent":18.7,"payment_vs_rent":null,"gross_rental_yield":5.35,"state_abbr":"NC","_lat":35.23,"_lon":-80.84},{"RegionName":"San Antonio, TX","StateName":"TX","cbsa_code":"395055","zhvi_current":280297.03,"zori_rent":1404.37,"z_inventory":14107.0,"z_price_cuts_pct":0.28,"z_sale_to_list":0.97,"z_new_listings":3287.0,"price_to_rent":16.63,"payment_vs_rent":null,"gross_rental_yield":6.01,"state_abbr":"TX","_lat":29.64,"_lon":-98.31},{"RegionName":"Portland, OR","StateName":"OR","cbsa_code":"394998","zhvi_current":552021.64,"zori_rent":1797.05,"z_inventory":8531.0,"z_price_cuts_pct":0.26,"z_sale_to_list":1.0,"z_new_listings":3248.0,"price_to_rent":25.6,"payment_vs_rent":null,"gross_rental_yield":3.91,"state_abbr":"OR","_lat":45.44,"_lon":-122.78},{"RegionName":"Sacramento, CA","StateName":"CA","cbsa_code":"395045","zhvi_current":582707.17,"zori_rent":2283.2,"z_inventory":6424.0,"z_price_cuts_pct":0.23,"z_sale_to_list":1.0,"z_new_listings":2791.0,"price_to_rent":21.27,"payment_vs_rent":null,"gross_rental_yield":4.7,"state_abbr":"CA","_lat":38.58,"_lon":-121.49},{"RegionName":"Pittsburgh, PA","StateName":"PA","cbsa_code":"394982","zhvi_current":231356.03,"zori_rent":1526.97,"z_inventory":7044.0,"z_price_cuts_pct":0.23,"z_sale_to_list":0.97,"z_new_listings":2780.0,"price_to_rent":12.63,"payment_vs_rent":null,"gross_rental_yield":7.92,"state_abbr":"PA","_lat":40.47,"_lon":-79.95},{"RegionName":"Cincinnati, OH","StateName":"OH","cbsa_code":"394466","zhvi_current":311269.73,"zori_rent":1575.17,"z_inventory":5929.0,"z_price_cuts_pct":0.25,"z_sale_to_list":0.99,"z_new_listings":2859.0,"price_to_rent":16.47,"payment_vs_rent":null,"gross_rental_yield":6.07,"state_abbr":"OH","_lat":39.11,"_lon":-84.54},{"RegionName":"Austin, TX","StateName":"TX","cbsa_code":"394355","zhvi_current":428524.12,"zori_rent":1635.21,"z_inventory":14140.0,"z_price_cuts_pct":0.26,"z_sale_to_list":0.97,"z_new_listings":3759.0,"price_to_rent":21.84,"payment_vs_rent":null,"gross_rental_yield":4.58,"state_abbr":"TX","_lat":30.51,"_lon":-97.75},{"RegionName":"Las Vegas, NV","StateName":"NV","cbsa_code":"394775","zhvi_current":430649.6,"zori_rent":1737.35,"z_inventory":12738.0,"z_price_cuts_pct":0.27,"z_sale_to_list":0.98,"z_new_listings":3330.0,"price_to_rent":20.66,"payment_vs_rent":null,"gross_rental_yield":4.84,"state_abbr":"NV","_lat":36.17,"_lon":-115.12},{"RegionName":"Kansas City, MO","StateName":"MO","cbsa_code":"394735","zhvi_current":329640.52,"zori_rent":1548.11,"z_inventory":6593.0,"z_price_cuts_pct":0.22,"z_sale_to_list":1.0,"z_new_listings":3191.0,"price_to_rent":17.74,"payment_vs_rent":null,"gross_rental_yield":5.64,"state_abbr":"MO","_lat":39.21,"_lon":-94.63},{"RegionName":"Columbus, OH","StateName":"OH","cbsa_code":"394492","zhvi_current":333537.24,"zori_rent":1523.76,"z_inventory":5572.0,"z_price_cuts_pct":0.25,"z_sale_to_list":0.99,"z_new_listings":2726.0,"price_to_rent":18.24,"payment_vs_rent":null,"gross_rental_yield":5.48,"state_abbr":"OH","_lat":40.11,"_lon":-83.01},{"RegionName":"Indianapolis, IN","StateName":"IN","cbsa_code":"394705","zhvi_current":295921.28,"zori_rent":1553.46,"z_inventory":7793.0,"z_price_cuts_pct":0.28,"z_sale_to_list":0.98,"z_new_listings":3276.0,"price_to_rent":15.87,"payment_vs_rent":null,"gross_rental_yield":6.3,"state_abbr":"IN","_lat":39.78,"_lon":-86.11},{"RegionName":"Cleveland, OH","StateName":"OH","cbsa_code":"394475","zhvi_current":252210.27,"zori_rent":1461.02,"z_inventory":5426.0,"z_price_cuts_pct":0.2,"z_sale_to_list":0.99,"z_new_listings":2490.0,"price_to_rent":14.39,"payment_vs_rent":null,"gross_rental_yield":6.95,"state_abbr":"OH","_lat":41.49,"_lon":-81.68},{"RegionName":"San Jose, CA","StateName":"CA","cbsa_code":"395059","zhvi_current":1610466.02,"zori_rent":3624.76,"z_inventory":3201.0,"z_price_cuts_pct":0.2,"z_sale_to_list":1.05,"z_new_listings":1521.0,"price_to_rent":37.02,"payment_vs_rent":null,"gross_rental_yield":2.7,"state_abbr":"CA","_lat":37.39,"_lon":-121.89},{"RegionName":"Nashville, TN","StateName":"TN","cbsa_code":"394902","zhvi_current":455957.78,"zori_rent":1797.97,"z_inventory":10672.0,"z_price_cuts_pct":0.3,"z_sale_to_list":0.97,"z_new_listings":3452.0,"price_to_rent":21.13,"payment_vs_rent":null,"gross_rental_yield":4.73,"state_abbr":"TN","_lat":36.17,"_lon":-86.78},{"RegionName":"Virginia Beach, VA","StateName":"VA","cbsa_code":"395194","zhvi_current":373677.57,"zori_rent":1862.38,"z_inventory":6920.0,"z_price_cuts_pct":0.19,"z_sale_to_list":1.0,"z_new_listings":2748.0,"price_to_rent":16.72,"payment_vs_rent":null,"gross_rental_yield":5.98,"state_abbr":"VA","_lat":36.85,"_lon":-75.98},{"RegionName":"Providence, RI","StateName":"RI","cbsa_code":"395005","zhvi_current":524867.47,"zori_rent":2162.76,"z_inventory":2912.0,"z_price_cuts_pct":0.16,"z_sale_to_list":1.0,"z_new_listings":1455.0,"price_to_rent":20.22,"payment_vs_rent":null,"gross_rental_yield":4.94,"state_abbr":"RI","_lat":41.83,"_lon":-71.41},{"RegionName":"Jacksonville, FL","StateName":"FL","cbsa_code":"394714","zhvi_current":352993.63,"zori_rent":1700.73,"z_inventory":10886.0,"z_price_cuts_pct":0.27,"z_sale_to_list":0.97,"z_new_listings":2670.0,"price_to_rent":17.3,"payment_vs_rent":null,"gross_rental_yield":5.78,"state_abbr":"FL","_lat":30.08,"_lon":-81.58},{"RegionName":"Milwaukee, WI","StateName":"WI","cbsa_code":"394862","zhvi_current":390237.71,"zori_rent":1537.56,"z_inventory":3860.0,"z_price_cuts_pct":0.14,"z_sale_to_list":1.01,"z_new_listings":1648.0,"price_to_rent":21.15,"payment_vs_rent":null,"gross_rental_yield":4.73,"state_abbr":"WI","_lat":43.03,"_lon":-87.92},{"RegionName":"Oklahoma City, OK","StateName":"OK","cbsa_code":"394935","zhvi_current":246871.92,"zori_rent":1398.61,"z_inventory":7493.0,"z_price_cuts_pct":0.26,"z_sale_to_list":0.98,"z_new_listings":2284.0,"price_to_rent":14.71,"payment_vs_rent":null,"gross_rental_yield":6.8,"state_abbr":"OK","_lat":35.47,"_lon":-97.52},{"RegionName":"Raleigh, NC","StateName":"NC","cbsa_code":"395012","zhvi_current":438363.61,"zori_rent":1694.05,"z_inventory":5668.0,"z_price_cuts_pct":0.32,"z_sale_to_list":0.98,"z_new_listings":2185.0,"price_to_rent":21.56,"payment_vs_rent":null,"gross_rental_yield":4.64,"state_abbr":"NC","_lat":35.77,"_lon":-78.63},{"RegionName":"Memphis, TN","StateName":"TN","cbsa_code":"394849","zhvi_current":247228.66,"zori_rent":1441.19,"z_inventory":6017.0,"z_price_cuts_pct":0.28,"z_sale_to_list":0.97,"z_new_listings":1747.0,"price_to_rent":14.3,"payment_vs_rent":null,"gross_rental_yield":7.0,"state_abbr":"TN","_lat":35.03,"_lon":-89.93},{"RegionName":"Richmond, VA","StateName":"VA","cbsa_code":"395022","zhvi_current":397704.78,"zori_rent":1762.63,"z_inventory":3254.0,"z_price_cuts_pct":0.2,"z_sale_to_list":1.01,"z_new_listings":1805.0,"price_to_rent":18.8,"payment_vs_rent":null,"gross_rental_yield":5.32,"state_abbr":"VA","_lat":37.56,"_lon":-77.45},{"RegionName":"Louisville, KY","StateName":"KY","cbsa_code":"394807","zhvi_current":283231.82,"zori_rent":1384.55,"z_inventory":4719.0,"z_price_cuts_pct":0.28,"z_sale_to_list":0.98,"z_new_listings":1885.0,"price_to_rent":17.05,"payment_vs_rent":null,"gross_rental_yield":5.87,"state_abbr":"KY","_lat":38.24,"_lon":-85.76},{"RegionName":"New Orleans, LA","StateName":"LA","cbsa_code":"394910","zhvi_current":261414.27,"zori_rent":1622.45,"z_inventory":6500.0,"z_price_cuts_pct":0.24,"z_sale_to_list":0.96,"z_new_listings":1446.0,"price_to_rent":13.43,"payment_vs_rent":null,"gross_rental_yield":7.45,"state_abbr":"LA","_lat":29.96,"_lon":-90.08},{"RegionName":"Salt Lake City, UT","StateName":"UT","cbsa_code":"395053","zhvi_current":568655.97,"zori_rent":1640.63,"z_inventory":4000.0,"z_price_cuts_pct":0.3,"z_sale_to_list":0.99,"z_new_listings":1535.0,"price_to_rent":28.88,"payment_vs_rent":null,"gross_rental_yield":3.46,"state_abbr":"UT","_lat":40.76,"_lon":-111.9},{"RegionName":"Hartford, CT","StateName":"CT","cbsa_code":"394669","zhvi_current":400166.72,"zori_rent":1975.31,"z_inventory":1831.0,"z_price_cuts_pct":0.13,"z_sale_to_list":1.03,"z_new_listings":1147.0,"price_to_rent":16.88,"payment_vs_rent":null,"gross_rental_yield":5.92,"state_abbr":"CT","_lat":41.76,"_lon":-72.69},{"RegionName":"Buffalo, NY","StateName":"NY","cbsa_code":"394425","zhvi_current":288315.64,"zori_rent":1444.31,"z_inventory":1820.0,"z_price_cuts_pct":0.13,"z_sale_to_list":1.03,"z_new_listings":998.0,"price_to_rent":16.64,"payment_vs_rent":null,"gross_rental_yield":6.01,"state_abbr":"NY","_lat":42.9,"_lon":-78.88},{"RegionName":"Birmingham, AL","StateName":"AL","cbsa_code":"394388","zhvi_current":262556.26,"zori_rent":1447.82,"z_inventory":5558.0,"z_price_cuts_pct":0.22,"z_sale_to_list":0.98,"z_new_listings":1712.0,"price_to_rent":15.11,"payment_vs_rent":null,"gross_rental_yield":6.62,"state_abbr":"AL","_lat":33.4,"_lon":-86.71},{"RegionName":"Rochester, NY","StateName":"NY","cbsa_code":"395031","zhvi_current":285033.76,"zori_rent":1597.09,"z_inventory":1543.0,"z_price_cuts_pct":0.09,"z_sale_to_list":1.12,"z_new_listings":995.0,"price_to_rent":14.87,"payment_vs_rent":null,"gross_rental_yield":6.72,"state_abbr":"NY","_lat":43.17,"_lon":-77.6},{"RegionName":"Grand Rapids, MI","StateName":"MI","cbsa_code":"394640","zhvi_current":359922.76,"zori_rent":1622.86,"z_inventory":2094.0,"z_price_cuts_pct":0.18,"z_sale_to_list":1.0,"z_new_listings":1219.0,"price_to_rent":18.48,"payment_vs_rent":null,"gross_rental_yield":5.41,"state_abbr":"MI","_lat":42.97,"_lon":-85.67},{"RegionName":"Tucson, AZ","StateName":"AZ","cbsa_code":"395167","zhvi_current":343579.91,"zori_rent":1473.03,"z_inventory":5168.0,"z_price_cuts_pct":0.29,"z_sale_to_list":0.98,"z_new_listings":1338.0,"price_to_rent":19.44,"payment_vs_rent":null,"gross_rental_yield":5.14,"state_abbr":"AZ","_lat":32.21,"_lon":-110.97},{"RegionName":"Urban Honolulu, HI","StateName":"HI","cbsa_code":"753924","zhvi_current":851163.21,"zori_rent":2980.12,"z_inventory":3782.0,"z_price_cuts_pct":0.17,"z_sale_to_list":0.98,"z_new_listings":866.0,"price_to_rent":23.8,"payment_vs_rent":null,"gross_rental_yield":4.2,"state_abbr":"HI","_lat":null,"_lon":null},{"RegionName":"Tulsa, OK","StateName":"OK","cbsa_code":"395169","zhvi_current":253724.53,"zori_rent":1351.64,"z_inventory":4513.0,"z_price_cuts_pct":0.25,"z_sale_to_list":0.98,"z_new_listings":1464.0,"price_to_rent":15.64,"payment_vs_rent":null,"gross_rental_yield":6.39,"state_abbr":"OK","_lat":36.15,"_lon":-96.0},{"RegionName":"Fresno, CA","StateName":"CA","cbsa_code":"394619","zhvi_current":409749.09,"zori_rent":2019.59,"z_inventory":2143.0,"z_price_cuts_pct":0.23,"z_sale_to_list":0.99,"z_new_listings":693.0,"price_to_rent":16.91,"payment_vs_rent":null,"gross_rental_yield":5.91,"state_abbr":"CA","_lat":36.84,"_lon":-119.8},{"RegionName":"Worcester, MA","StateName":"MA","cbsa_code":"395238","zhvi_current":482610.7,"zori_rent":2182.16,"z_inventory":2014.0,"z_price_cuts_pct":0.19,"z_sale_to_list":1.0,"z_new_listings":1078.0,"price_to_rent":18.43,"payment_vs_rent":null,"gross_rental_yield":5.43,"state_abbr":"MA","_lat":42.26,"_lon":-71.8},{"RegionName":"Omaha, NE","StateName":"NE","cbsa_code":"394938","zhvi_current":310336.77,"zori_rent":1444.23,"z_inventory":2583.0,"z_price_cuts_pct":0.23,"z_sale_to_list":0.99,"z_new_listings":1268.0,"price_to_rent":17.91,"payment_vs_rent":null,"gross_rental_yield":5.58,"state_abbr":"NE","_lat":41.17,"_lon":-96.21},{"RegionName":"Bridgeport, CT","StateName":"CT","cbsa_code":"394415","zhvi_current":689913.86,"zori_rent":2852.84,"z_inventory":2041.0,"z_price_cuts_pct":0.13,"z_sale_to_list":1.02,"z_new_listings":1097.0,"price_to_rent":20.15,"payment_vs_rent":null,"gross_rental_yield":4.96,"state_abbr":"CT","_lat":41.17,"_lon":-73.21},{"RegionName":"Greenville, SC","StateName":"SC","cbsa_code":"394653","zhvi_current":315284.82,"zori_rent":1544.43,"z_inventory":4338.0,"z_price_cuts_pct":0.29,"z_sale_to_list":0.98,"z_new_listings":1422.0,"price_to_rent":17.01,"payment_vs_rent":null,"gross_rental_yield":5.88,"state_abbr":"SC","_lat":34.91,"_lon":-82.1},{"RegionName":"Albuquerque, NM","StateName":"NM","cbsa_code":"394312","zhvi_current":352894.32,"zori_rent":1501.84,"z_inventory":2589.0,"z_price_cuts_pct":0.26,"z_sale_to_list":0.99,"z_new_listings":1014.0,"price_to_rent":19.58,"payment_vs_rent":null,"gross_rental_yield":5.11,"state_abbr":"NM","_lat":35.09,"_lon":-106.64},{"RegionName":"Bakersfield, CA","StateName":"CA","cbsa_code":"394357","zhvi_current":364263.62,"zori_rent":1787.94,"z_inventory":2852.0,"z_price_cuts_pct":0.22,"z_sale_to_list":0.99,"z_new_listings":892.0,"price_to_rent":16.98,"payment_vs_rent":null,"gross_rental_yield":5.89,"state_abbr":"CA","_lat":35.39,"_lon":-119.02},{"RegionName":"Albany, NY","StateName":"NY","cbsa_code":"394308","zhvi_current":370533.14,"zori_rent":1680.57,"z_inventory":1457.0,"z_price_cuts_pct":0.16,"z_sale_to_list":1.0,"z_new_listings":763.0,"price_to_rent":18.37,"payment_vs_rent":null,"gross_rental_yield":5.44,"state_abbr":"NY","_lat":42.65,"_lon":-73.76},{"RegionName":"Knoxville, TN","StateName":"TN","cbsa_code":"394753","zhvi_current":367157.55,"zori_rent":1761.7,"z_inventory":4588.0,"z_price_cuts_pct":0.29,"z_sale_to_list":0.97,"z_new_listings":1537.0,"price_to_rent":17.37,"payment_vs_rent":null,"gross_rental_yield":5.76,"state_abbr":"TN","_lat":35.96,"_lon":-83.92},{"RegionName":"Baton Rouge, LA","StateName":"LA","cbsa_code":"394367","zhvi_current":248175.8,"zori_rent":1393.28,"z_inventory":3573.0,"z_price_cuts_pct":0.26,"z_sale_to_list":0.98,"z_new_listings":910.0,"price_to_rent":14.84,"payment_vs_rent":null,"gross_rental_yield":6.74,"state_abbr":"LA","_lat":30.45,"_lon":-91.19},{"RegionName":"McAllen, TX","StateName":"TX","cbsa_code":"394843","zhvi_current":193978.29,"zori_rent":1128.31,"z_inventory":3650.0,"z_price_cuts_pct":0.18,"z_sale_to_list":0.96,"z_new_listings":564.0,"price_to_rent":14.33,"payment_vs_rent":null,"gross_rental_yield":6.98,"state_abbr":"TX","_lat":26.22,"_lon":-98.24},{"RegionName":"New Haven, CT","StateName":"CT","cbsa_code":"394908","zhvi_current":408096.26,"zori_rent":2186.41,"z_inventory":1668.0,"z_price_cuts_pct":0.16,"z_sale_to_list":1.01,"z_new_listings":884.0,"price_to_rent":15.55,"payment_vs_rent":null,"gross_rental_yield":6.43,"state_abbr":"CT","_lat":41.31,"_lon":-72.93},{"RegionName":"El Paso, TX","StateName":"TX","cbsa_code":"394561","zhvi_current":232909.77,"zori_rent":1520.05,"z_inventory":3443.0,"z_price_cuts_pct":0.15,"z_sale_to_list":0.98,"z_new_listings":869.0,"price_to_rent":12.77,"payment_vs_rent":null,"gross_rental_yield":7.83,"state_abbr":"TX","_lat":31.76,"_lon":-106.48},{"RegionName":"Allentown, PA","StateName":"PA","cbsa_code":"394318","zhvi_current":363989.24,"zori_rent":1856.82,"z_inventory":1938.0,"z_price_cuts_pct":0.16,"z_sale_to_list":1.0,"z_new_listings":960.0,"price_to_rent":16.34,"payment_vs_rent":null,"gross_rental_yield":6.12,"state_abbr":"PA","_lat":40.6,"_lon":-75.47},{"RegionName":"Oxnard, CA","StateName":"CA","cbsa_code":"394952","zhvi_current":883047.33,"zori_rent":2978.64,"z_inventory":1862.0,"z_price_cuts_pct":0.24,"z_sale_to_list":0.99,"z_new_listings":700.0,"price_to_rent":24.71,"payment_vs_rent":null,"gross_rental_yield":4.05,"state_abbr":"CA","_lat":34.21,"_lon":-119.17},{"RegionName":"Columbia, SC","StateName":"SC","cbsa_code":"394486","zhvi_current":256154.17,"zori_rent":1536.59,"z_inventory":3467.0,"z_price_cuts_pct":0.28,"z_sale_to_list":0.98,"z_new_listings":1151.0,"price_to_rent":13.89,"payment_vs_rent":null,"gross_rental_yield":7.2,"state_abbr":"SC","_lat":34.0,"_lon":-81.03},{"RegionName":"North Port, FL","StateName":"FL","cbsa_code":"753906","zhvi_current":403600.97,"zori_rent":2153.68,"z_inventory":10585.0,"z_price_cuts_pct":0.29,"z_sale_to_list":0.95,"z_new_listings":2071.0,"price_to_rent":15.62,"payment_vs_rent":null,"gross_rental_yield":6.4,"state_abbr":"FL","_lat":27.08,"_lon":-82.17},{"RegionName":"Charleston, SC","StateName":"SC","cbsa_code":"394457","zhvi_current":435877.15,"zori_rent":2024.17,"z_inventory":6439.0,"z_price_cuts_pct":0.24,"z_sale_to_list":0.97,"z_new_listings":1645.0,"price_to_rent":17.94,"payment_vs_rent":null,"gross_rental_yield":5.57,"state_abbr":"SC","_lat":32.78,"_lon":-79.94},{"RegionName":"Greensboro, NC","StateName":"NC","cbsa_code":"394648","zhvi_current":266370.5,"zori_rent":1423.84,"z_inventory":2535.0,"z_price_cuts_pct":0.28,"z_sale_to_list":0.98,"z_new_listings":902.0,"price_to_rent":15.59,"payment_vs_rent":null,"gross_rental_yield":6.41,"state_abbr":"NC","_lat":36.07,"_lon":-79.77},{"RegionName":"Stockton, CA","StateName":"CA","cbsa_code":"395134","zhvi_current":531785.28,"zori_rent":2420.82,"z_inventory":1677.0,"z_price_cuts_pct":0.25,"z_sale_to_list":0.99,"z_new_listings":593.0,"price_to_rent":18.31,"payment_vs_rent":null,"gross_rental_yield":5.46,"state_abbr":"CA","_lat":37.96,"_lon":-121.29},{"RegionName":"Cape Coral, FL","StateName":"FL","cbsa_code":"394440","zhvi_current":339371.63,"zori_rent":1880.75,"z_inventory":12784.0,"z_price_cuts_pct":0.27,"z_sale_to_list":0.95,"z_new_listings":1985.0,"price_to_rent":15.04,"payment_vs_rent":null,"gross_rental_yield":6.65,"state_abbr":"FL","_lat":26.58,"_lon":-81.95},{"RegionName":"Boise City, ID","StateName":"ID","cbsa_code":"394399","zhvi_current":496287.93,"zori_rent":1837.42,"z_inventory":2842.0,"z_price_cuts_pct":0.25,"z_sale_to_list":0.99,"z_new_listings":1338.0,"price_to_rent":22.51,"payment_vs_rent":null,"gross_rental_yield":4.44,"state_abbr":"ID","_lat":null,"_lon":null},{"RegionName":"Colorado Springs, CO","StateName":"CO","cbsa_code":"394484","zhvi_current":457299.67,"zori_rent":1766.87,"z_inventory":4259.0,"z_price_cuts_pct":0.3,"z_sale_to_list":0.99,"z_new_listings":1505.0,"price_to_rent":21.57,"payment_vs_rent":null,"gross_rental_yield":4.64,"state_abbr":"CO","_lat":38.83,"_lon":-104.82},{"RegionName":"Little Rock, AR","StateName":"AR","cbsa_code":"394798","zhvi_current":231039.2,"zori_rent":1246.13,"z_inventory":3970.0,"z_price_cuts_pct":0.22,"z_sale_to_list":0.97,"z_new_listings":1069.0,"price_to_rent":15.45,"payment_vs_rent":null,"gross_rental_yield":6.47,"state_abbr":"AR","_lat":34.75,"_lon":-92.28},{"RegionName":"Lakeland, FL","StateName":"FL","cbsa_code":"394766","zhvi_current":298815.91,"zori_rent":1848.6,"z_inventory":5225.0,"z_price_cuts_pct":0.26,"z_sale_to_list":0.97,"z_new_listings":1087.0,"price_to_rent":13.47,"payment_vs_rent":null,"gross_rental_yield":7.42,"state_abbr":"FL","_lat":28.04,"_lon":-81.94},{"RegionName":"Akron, OH","StateName":"OH","cbsa_code":"394304","zhvi_current":241251.02,"zori_rent":1259.98,"z_inventory":1705.0,"z_price_cuts_pct":0.2,"z_sale_to_list":0.99,"z_new_listings":815.0,"price_to_rent":15.96,"payment_vs_rent":null,"gross_rental_yield":6.27,"state_abbr":"OH","_lat":41.04,"_lon":-81.52},{"RegionName":"Des Moines, IA","StateName":"IA","cbsa_code":"394531","zhvi_current":296070.34,"zori_rent":1293.43,"z_inventory":3530.0,"z_price_cuts_pct":0.27,"z_sale_to_list":0.98,"z_new_listings":1226.0,"price_to_rent":19.08,"payment_vs_rent":null,"gross_rental_yield":5.24,"state_abbr":"IA","_lat":41.6,"_lon":-93.61},{"RegionName":"Springfield, MA","StateName":"MA","cbsa_code":"395115","zhvi_current":376016.83,"zori_rent":1941.22,"z_inventory":1167.0,"z_price_cuts_pct":0.15,"z_sale_to_list":1.01,"z_new_listings":626.0,"price_to_rent":16.14,"payment_vs_rent":null,"gross_rental_yield":6.2,"state_abbr":"MA","_lat":42.11,"_lon":-72.6},{"RegionName":"Ogden, UT","StateName":"UT","cbsa_code":"394931","zhvi_current":520531.39,"zori_rent":1629.69,"z_inventory":2458.0,"z_price_cuts_pct":0.32,"z_sale_to_list":0.99,"z_new_listings":894.0,"price_to_rent":26.62,"payment_vs_rent":null,"gross_rental_yield":3.76,"state_abbr":"UT","_lat":41.24,"_lon":-112.01},{"RegionName":"Madison, WI","StateName":"WI","cbsa_code":"394816","zhvi_current":452769.32,"zori_rent":1683.34,"z_inventory":1923.0,"z_price_cuts_pct":0.14,"z_sale_to_list":1.01,"z_new_listings":804.0,"price_to_rent":22.41,"payment_vs_rent":null,"gross_rental_yield":4.46,"state_abbr":"WI","_lat":43.07,"_lon":-89.38},{"RegionName":"Winston, NC","StateName":"NC","cbsa_code":"395235","zhvi_current":283871.09,"zori_rent":1546.26,"z_inventory":2379.0,"z_price_cuts_pct":0.27,"z_sale_to_list":0.98,"z_new_listings":886.0,"price_to_rent":15.3,"payment_vs_rent":null,"gross_rental_yield":6.54,"state_abbr":"NC","_lat":null,"_lon":null},{"RegionName":"Deltona, FL","StateName":"FL","cbsa_code":"394528","zhvi_current":330725.02,"zori_rent":1803.65,"z_inventory":6766.0,"z_price_cuts_pct":0.27,"z_sale_to_list":0.96,"z_new_listings":1433.0,"price_to_rent":15.28,"payment_vs_rent":null,"gross_rental_yield":6.54,"state_abbr":"FL","_lat":28.9,"_lon":-81.25},{"RegionName":"Syracuse, NY","StateName":"NY","cbsa_code":"395143","zhvi_current":264902.92,"zori_rent":1633.15,"z_inventory":984.0,"z_price_cuts_pct":0.12,"z_sale_to_list":1.02,"z_new_listings":542.0,"price_to_rent":13.52,"payment_vs_rent":null,"gross_rental_yield":7.4,"state_abbr":"NY","_lat":43.05,"_lon":-76.15},{"RegionName":"Provo, UT","StateName":"UT","cbsa_code":"395006","zhvi_current":546640.99,"zori_rent":1825.08,"z_inventory":2724.0,"z_price_cuts_pct":0.31,"z_sale_to_list":0.99,"z_new_listings":963.0,"price_to_rent":24.96,"payment_vs_rent":null,"gross_rental_yield":4.01,"state_abbr":"UT","_lat":40.23,"_lon":-111.68},{"RegionName":"Toledo, OH","StateName":"OH","cbsa_code":"395160","zhvi_current":203726.01,"zori_rent":1301.58,"z_inventory":1616.0,"z_price_cuts_pct":0.19,"z_sale_to_list":0.99,"z_new_listings":718.0,"price_to_rent":13.04,"payment_vs_rent":null,"gross_rental_yield":7.67,"state_abbr":"OH","_lat":41.64,"_lon":-83.54},{"RegionName":"Wichita, KS","StateName":"KS","cbsa_code":"395224","zhvi_current":225556.56,"zori_rent":1200.82,"z_inventory":2264.0,"z_price_cuts_pct":0.2,"z_sale_to_list":0.99,"z_new_listings":899.0,"price_to_rent":15.65,"payment_vs_rent":null,"gross_rental_yield":6.39,"state_abbr":"KS","_lat":37.69,"_lon":-97.34},{"RegionName":"Durham, NC","StateName":"NC","cbsa_code":"394549","zhvi_current":414339.68,"zori_rent":1702.64,"z_inventory":2366.0,"z_price_cuts_pct":0.29,"z_sale_to_list":0.98,"z_new_listings":927.0,"price_to_rent":20.28,"payment_vs_rent":null,"gross_rental_yield":4.93,"state_abbr":"NC","_lat":36.0,"_lon":-78.9},{"RegionName":"Augusta, GA","StateName":"GA","cbsa_code":"394352","zhvi_current":253524.27,"zori_rent":1478.61,"z_inventory":2740.0,"z_price_cuts_pct":0.24,"z_sale_to_list":0.98,"z_new_listings":792.0,"price_to_rent":14.29,"payment_vs_rent":null,"gross_rental_yield":7.0,"state_abbr":"GA","_lat":33.46,"_lon":-81.97},{"RegionName":"Palm Bay, FL","StateName":"FL","cbsa_code":"394957","zhvi_current":344841.06,"zori_rent":1919.51,"z_inventory":4650.0,"z_price_cuts_pct":0.29,"z_sale_to_list":0.97,"z_new_listings":1128.0,"price_to_rent":14.97,"payment_vs_rent":null,"gross_rental_yield":6.68,"state_abbr":"FL","_lat":28.01,"_lon":-80.6},{"RegionName":"Jackson, MS","StateName":"MS","cbsa_code":"394711","zhvi_current":215135.63,"zori_rent":1450.08,"z_inventory":2256.0,"z_price_cuts_pct":0.23,"z_sale_to_list":0.97,"z_new_listings":642.0,"price_to_rent":12.36,"payment_vs_rent":null,"gross_rental_yield":8.09,"state_abbr":"MS","_lat":32.3,"_lon":-90.18},{"RegionName":"Harrisburg, PA","StateName":"PA","cbsa_code":"394666","zhvi_current":312126.43,"zori_rent":1486.57,"z_inventory":1206.0,"z_price_cuts_pct":0.23,"z_sale_to_list":1.0,"z_new_listings":624.0,"price_to_rent":17.5,"payment_vs_rent":null,"gross_rental_yield":5.72,"state_abbr":"PA","_lat":40.26,"_lon":-76.88},{"RegionName":"Spokane, WA","StateName":"WA","cbsa_code":"395113","zhvi_current":423841.58,"zori_rent":1549.42,"z_inventory":2385.0,"z_price_cuts_pct":0.26,"z_sale_to_list":0.99,"z_new_listings":921.0,"price_to_rent":22.8,"payment_vs_rent":null,"gross_rental_yield":4.39,"state_abbr":"WA","_lat":47.67,"_lon":-117.44},{"RegionName":"Scranton, PA","StateName":"PA","cbsa_code":"395075","zhvi_current":227793.13,"zori_rent":1357.81,"z_inventory":1261.0,"z_price_cuts_pct":0.21,"z_sale_to_list":0.98,"z_new_listings":491.0,"price_to_rent":13.98,"payment_vs_rent":null,"gross_rental_yield":7.15,"state_abbr":"PA","_lat":41.37,"_lon":-75.68},{"RegionName":"Chattanooga, TN","StateName":"TN","cbsa_code":"394460","zhvi_current":326370.32,"zori_rent":1530.0,"z_inventory":2886.0,"z_price_cuts_pct":0.3,"z_sale_to_list":0.97,"z_new_listings":857.0,"price_to_rent":17.78,"payment_vs_rent":null,"gross_rental_yield":5.63,"state_abbr":"TN","_lat":35.05,"_lon":-85.31},{"RegionName":"Modesto, CA","StateName":"CA","cbsa_code":"394871","zhvi_current":468302.01,"zori_rent":2052.16,"z_inventory":1010.0,"z_price_cuts_pct":0.21,"z_sale_to_list":1.0,"z_new_listings":392.0,"price_to_rent":19.02,"payment_vs_rent":null,"gross_rental_yield":5.26,"state_abbr":"CA","_lat":37.67,"_lon":-121.01},{"RegionName":"Lancaster, PA","StateName":"PA","cbsa_code":"394768","zhvi_current":388207.15,"zori_rent":1526.36,"z_inventory":688.0,"z_price_cuts_pct":0.17,"z_sale_to_list":1.01,"z_new_listings":429.0,"price_to_rent":21.19,"payment_vs_rent":null,"gross_rental_yield":4.72,"state_abbr":"PA","_lat":40.08,"_lon":-76.32},{"RegionName":"Portland, ME","StateName":"ME","cbsa_code":"394997","zhvi_current":542063.41,"zori_rent":2320.23,"z_inventory":1707.0,"z_price_cuts_pct":0.16,"z_sale_to_list":0.99,"z_new_listings":816.0,"price_to_rent":19.47,"payment_vs_rent":null,"gross_rental_yield":5.14,"state_abbr":"ME","_lat":43.66,"_lon":-70.26},{"RegionName":"Youngstown, OH","StateName":"OH","cbsa_code":"395245","zhvi_current":175405.46,"zori_rent":1029.94,"z_inventory":1592.0,"z_price_cuts_pct":0.23,"z_sale_to_list":0.96,"z_new_listings":582.0,"price_to_rent":14.19,"payment_vs_rent":null,"gross_rental_yield":7.05,"state_abbr":"OH","_lat":41.1,"_lon":-80.65},{"RegionName":"Lansing, MI","StateName":"MI","cbsa_code":"394770","zhvi_current":250377.26,"zori_rent":1265.43,"z_inventory":1244.0,"z_price_cuts_pct":0.19,"z_sale_to_list":0.99,"z_new_listings":607.0,"price_to_rent":16.49,"payment_vs_rent":null,"gross_rental_yield":6.06,"state_abbr":"MI","_lat":42.73,"_lon":-84.56},{"RegionName":"Fayetteville, AR","StateName":"AR","cbsa_code":"394590","zhvi_current":368496.55,"zori_rent":1593.58,"z_inventory":3045.0,"z_price_cuts_pct":0.27,"z_sale_to_list":0.98,"z_new_listings":957.0,"price_to_rent":19.27,"payment_vs_rent":null,"gross_rental_yield":5.19,"state_abbr":"AR","_lat":36.05,"_lon":-94.15},{"RegionName":"Fayetteville, NC","StateName":"NC","cbsa_code":"394589","zhvi_current":259182.66,"zori_rent":1480.9,"z_inventory":2121.0,"z_price_cuts_pct":0.27,"z_sale_to_list":0.98,"z_new_listings":718.0,"price_to_rent":14.58,"payment_vs_rent":null,"gross_rental_yield":6.86,"state_abbr":"NC","_lat":35.05,"_lon":-78.84},{"RegionName":"Lexington, KY","StateName":"KY","cbsa_code":"394792","zhvi_current":327671.36,"zori_rent":1528.0,"z_inventory":1712.0,"z_price_cuts_pct":0.23,"z_sale_to_list":0.98,"z_new_listings":704.0,"price_to_rent":17.87,"payment_vs_rent":null,"gross_rental_yield":5.6,"state_abbr":"KY","_lat":38.02,"_lon":-84.49},{"RegionName":"Pensacola, FL","StateName":"FL","cbsa_code":"394971","zhvi_current":310470.43,"zori_rent":1764.6,"z_inventory":3339.0,"z_price_cuts_pct":0.26,"z_sale_to_list":0.97,"z_new_listings":922.0,"price_to_rent":14.66,"payment_vs_rent":null,"gross_rental_yield":6.82,"state_abbr":"FL","_lat":30.42,"_lon":-87.22},{"RegionName":"Santa Rosa, CA","StateName":"CA","cbsa_code":"395068","zhvi_current":796761.16,"zori_rent":2636.77,"z_inventory":1245.0,"z_price_cuts_pct":0.19,"z_sale_to_list":1.0,"z_new_listings":515.0,"price_to_rent":25.18,"payment_vs_rent":null,"gross_rental_yield":3.97,"state_abbr":"CA","_lat":38.44,"_lon":-122.75},{"RegionName":"Reno, NV","StateName":"NV","cbsa_code":"395019","zhvi_current":570545.69,"zori_rent":1978.08,"z_inventory":1659.0,"z_price_cuts_pct":0.21,"z_sale_to_list":0.99,"z_new_listings":700.0,"price_to_rent":24.04,"payment_vs_rent":null,"gross_rental_yield":4.16,"state_abbr":"NV","_lat":39.53,"_lon":-119.81},{"RegionName":"Huntsville, AL","StateName":"AL","cbsa_code":"394698","zhvi_current":316644.59,"zori_rent":1385.23,"z_inventory":3010.0,"z_price_cuts_pct":0.25,"z_sale_to_list":0.98,"z_new_listings":878.0,"price_to_rent":19.05,"payment_vs_rent":null,"gross_rental_yield":5.25,"state_abbr":"AL","_lat":34.73,"_lon":-86.57},{"RegionName":"Port St. Lucie, FL","StateName":"FL","cbsa_code":"394995","zhvi_current":383274.69,"zori_rent":2332.28,"z_inventory":5262.0,"z_price_cuts_pct":0.26,"z_sale_to_list":0.96,"z_new_listings":1058.0,"price_to_rent":13.69,"payment_vs_rent":null,"gross_rental_yield":7.3,"state_abbr":"FL","_lat":null,"_lon":null},{"RegionName":"Lafayette, LA","StateName":"LA","cbsa_code":"394761","zhvi_current":202312.16,"zori_rent":1370.53,"z_inventory":1793.0,"z_price_cuts_pct":0.25,"z_sale_to_list":0.97,"z_new_listings":435.0,"price_to_rent":12.3,"payment_vs_rent":null,"gross_rental_yield":8.13,"state_abbr":"LA","_lat":30.24,"_lon":-92.01},{"RegionName":"Myrtle Beach, SC","StateName":"SC","cbsa_code":"394898","zhvi_current":340239.17,"zori_rent":1726.06,"z_inventory":8374.0,"z_price_cuts_pct":0.29,"z_sale_to_list":0.96,"z_new_listings":1841.0,"price_to_rent":16.43,"payment_vs_rent":null,"gross_rental_yield":6.09,"state_abbr":"SC","_lat":33.76,"_lon":-78.8},{"RegionName":"Springfield, MO","StateName":"MO","cbsa_code":"395116","zhvi_current":272938.19,"zori_rent":1271.39,"z_inventory":2013.0,"z_price_cuts_pct":0.23,"z_sale_to_list":0.98,"z_new_listings":789.0,"price_to_rent":17.89,"payment_vs_rent":null,"gross_rental_yield":5.59,"state_abbr":"MO","_lat":37.22,"_lon":-93.3},{"RegionName":"Visalia, CA","StateName":"CA","cbsa_code":"395195","zhvi_current":363063.8,"zori_rent":1775.1,"z_inventory":927.0,"z_price_cuts_pct":0.21,"z_sale_to_list":0.99,"z_new_listings":317.0,"price_to_rent":17.04,"payment_vs_rent":null,"gross_rental_yield":5.87,"state_abbr":"CA","_lat":36.31,"_lon":-119.31},{"RegionName":"Killeen, TX","StateName":"TX","cbsa_code":"394746","zhvi_current":252591.41,"zori_rent":1328.34,"z_inventory":2879.0,"z_price_cuts_pct":0.25,"z_sale_to_list":0.98,"z_new_listings":669.0,"price_to_rent":15.85,"payment_vs_rent":null,"gross_rental_yield":6.31,"state_abbr":"TX","_lat":31.12,"_lon":-97.73},{"RegionName":"Asheville, NC","StateName":"NC","cbsa_code":"394338","zhvi_current":428742.09,"zori_rent":1708.28,"z_inventory":3305.0,"z_price_cuts_pct":0.23,"z_sale_to_list":0.96,"z_new_listings":891.0,"price_to_rent":20.91,"payment_vs_rent":null,"gross_rental_yield":4.78,"state_abbr":"NC","_lat":35.6,"_lon":-82.56},{"RegionName":"York, PA","StateName":"PA","cbsa_code":"395244","zhvi_current":309966.75,"zori_rent":1384.09,"z_inventory":909.0,"z_price_cuts_pct":0.22,"z_sale_to_list":1.0,"z_new_listings":515.0,"price_to_rent":18.66,"payment_vs_rent":null,"gross_rental_yield":5.36,"state_abbr":"PA","_lat":39.96,"_lon":-76.73},{"RegionName":"Vallejo, CA","StateName":"CA","cbsa_code":"395183","zhvi_current":576614.31,"zori_rent":2400.44,"z_inventory":1086.0,"z_price_cuts_pct":0.23,"z_sale_to_list":1.01,"z_new_listings":435.0,"price_to_rent":20.02,"payment_vs_rent":null,"gross_rental_yield":5.0,"state_abbr":"CA","_lat":38.15,"_lon":-122.25},{"RegionName":"Santa Maria, CA","StateName":"CA","cbsa_code":"753917","zhvi_current":1005338.76,"zori_rent":3337.75,"z_inventory":786.0,"z_price_cuts_pct":0.19,"z_sale_to_list":0.99,"z_new_listings":287.0,"price_to_rent":25.1,"payment_vs_rent":null,"gross_rental_yield":3.98,"state_abbr":"CA","_lat":34.95,"_lon":-120.43},{"RegionName":"Salinas, CA","StateName":"CA","cbsa_code":"395050","zhvi_current":850461.48,"zori_rent":2895.04,"z_inventory":669.0,"z_price_cuts_pct":0.2,"z_sale_to_list":0.99,"z_new_listings":232.0,"price_to_rent":24.48,"payment_vs_rent":null,"gross_rental_yield":4.08,"state_abbr":"CA","_lat":36.67,"_lon":-121.66},{"RegionName":"Salem, OR","StateName":"OR","cbsa_code":"395048","zhvi_current":454688.65,"zori_rent":1627.93,"z_inventory":1381.0,"z_price_cuts_pct":0.25,"z_sale_to_list":0.99,"z_new_listings":464.0,"price_to_rent":23.28,"payment_vs_rent":null,"gross_rental_yield":4.3,"state_abbr":"OR","_lat":44.96,"_lon":-123.08},{"RegionName":"Mobile, AL","StateName":"AL","cbsa_code":"394870","zhvi_current":197857.02,"zori_rent":1322.76,"z_inventory":1772.0,"z_price_cuts_pct":0.25,"z_sale_to_list":0.97,"z_new_listings":496.0,"price_to_rent":12.46,"payment_vs_rent":null,"gross_rental_yield":8.02,"state_abbr":"AL","_lat":30.7,"_lon":-88.04},{"RegionName":"Reading, PA","StateName":"PA","cbsa_code":"395015","zhvi_current":312347.92,"zori_rent":1505.08,"z_inventory":658.0,"z_price_cuts_pct":0.16,"z_sale_to_list":1.0,"z_new_listings":409.0,"price_to_rent":17.29,"payment_vs_rent":null,"gross_rental_yield":5.78,"state_abbr":"PA","_lat":40.35,"_lon":-75.94},{"RegionName":"Corpus Christi, TX","StateName":"TX","cbsa_code":"394502","zhvi_current":225069.97,"zori_rent":1408.03,"z_inventory":3201.0,"z_price_cuts_pct":0.23,"z_sale_to_list":0.96,"z_new_listings":641.0,"price_to_rent":13.32,"payment_vs_rent":null,"gross_rental_yield":7.51,"state_abbr":"TX","_lat":27.79,"_lon":-97.4},{"RegionName":"Brownsville, TX","StateName":"TX","cbsa_code":"394421","zhvi_current":207149.89,"zori_rent":1459.51,"z_inventory":1778.0,"z_price_cuts_pct":0.16,"z_sale_to_list":0.96,"z_new_listings":312.0,"price_to_rent":11.83,"payment_vs_rent":null,"gross_rental_yield":8.45,"state_abbr":"TX","_lat":25.93,"_lon":-97.52},{"RegionName":"Manchester, NH","StateName":"NH","cbsa_code":"394820","zhvi_current":526340.06,"zori_rent":2136.22,"z_inventory":706.0,"z_price_cuts_pct":0.14,"z_sale_to_list":1.01,"z_new_listings":469.0,"price_to_rent":20.53,"payment_vs_rent":null,"gross_rental_yield":4.87,"state_abbr":"NH","_lat":42.99,"_lon":-71.46},{"RegionName":"Fort Wayne, IN","StateName":"IN","cbsa_code":"394612","zhvi_current":259816.45,"zori_rent":1264.43,"z_inventory":1145.0,"z_price_cuts_pct":0.21,"z_sale_to_list":0.98,"z_new_listings":516.0,"price_to_rent":17.12,"payment_vs_rent":null,"gross_rental_yield":5.84,"state_abbr":"IN","_lat":41.07,"_lon":-85.14},{"RegionName":"Gulfport, MS","StateName":"MS","cbsa_code":"394658","zhvi_current":224666.43,"zori_rent":1422.86,"z_inventory":2416.0,"z_price_cuts_pct":0.25,"z_sale_to_list":0.96,"z_new_listings":572.0,"price_to_rent":13.16,"payment_vs_rent":null,"gross_rental_yield":7.6,"state_abbr":"MS","_lat":30.38,"_lon":-89.1},{"RegionName":"Salisbury, MD","StateName":"DE","cbsa_code":"395051","zhvi_current":429483.25,"zori_rent":1967.53,"z_inventory":3163.0,"z_price_cuts_pct":0.25,"z_sale_to_list":0.97,"z_new_listings":949.0,"price_to_rent":18.19,"payment_vs_rent":null,"gross_rental_yield":5.5,"state_abbr":"DE","_lat":null,"_lon":null},{"RegionName":"Flint, MI","StateName":"MI","cbsa_code":"394596","zhvi_current":197857.97,"zori_rent":1096.11,"z_inventory":1194.0,"z_price_cuts_pct":0.22,"z_sale_to_list":0.98,"z_new_listings":508.0,"price_to_rent":15.04,"payment_vs_rent":null,"gross_rental_yield":6.65,"state_abbr":"MI","_lat":43.02,"_lon":-83.69},{"RegionName":"Peoria, IL","StateName":"IL","cbsa_code":"394972","zhvi_current":172741.7,"zori_rent":1178.75,"z_inventory":998.0,"z_price_cuts_pct":0.2,"z_sale_to_list":0.98,"z_new_listings":485.0,"price_to_rent":12.21,"payment_vs_rent":null,"gross_rental_yield":8.19,"state_abbr":"IL","_lat":40.69,"_lon":-89.6},{"RegionName":"Canton, OH","StateName":"OH","cbsa_code":"394439","zhvi_current":218775.69,"zori_rent":1084.03,"z_inventory":951.0,"z_price_cuts_pct":0.21,"z_sale_to_list":0.99,"z_new_listings":444.0,"price_to_rent":16.82,"payment_vs_rent":null,"gross_rental_yield":5.95,"state_abbr":"OH","_lat":40.8,"_lon":-81.38},{"RegionName":"Savannah, GA","StateName":"GA","cbsa_code":"395070","zhvi_current":348053.59,"zori_rent":1792.35,"z_inventory":2695.0,"z_price_cuts_pct":0.28,"z_sale_to_list":0.97,"z_new_listings":684.0,"price_to_rent":16.18,"payment_vs_rent":null,"gross_rental_yield":6.18,"state_abbr":"GA","_lat":32.07,"_lon":-81.1},{"RegionName":"Anchorage, AK","StateName":"AK","cbsa_code":"394327","zhvi_current":422103.26,"zori_rent":1770.16,"z_inventory":945.0,"z_price_cuts_pct":0.17,"z_sale_to_list":0.99,"z_new_listings":522.0,"price_to_rent":19.87,"payment_vs_rent":null,"gross_rental_yield":5.03,"state_abbr":"AK","_lat":61.21,"_lon":-149.88},{"RegionName":"Beaumont, TX","StateName":"TX","cbsa_code":"394372","zhvi_current":185607.59,"zori_rent":1332.1,"z_inventory":1566.0,"z_price_cuts_pct":0.22,"z_sale_to_list":0.97,"z_new_listings":388.0,"price_to_rent":11.61,"payment_vs_rent":null,"gross_rental_yield":8.61,"state_abbr":"TX","_lat":30.07,"_lon":-94.1},{"RegionName":"Shreveport, LA","StateName":"LA","cbsa_code":"395096","zhvi_current":186193.19,"zori_rent":1347.73,"z_inventory":1714.0,"z_price_cuts_pct":0.22,"z_sale_to_list":0.97,"z_new_listings":420.0,"price_to_rent":11.51,"payment_vs_rent":null,"gross_rental_yield":8.69,"state_abbr":"LA","_lat":32.5,"_lon":-93.75},{"RegionName":"Trenton, NJ","StateName":"NJ","cbsa_code":"395164","zhvi_current":446376.96,"zori_rent":2622.72,"z_inventory":891.0,"z_price_cuts_pct":0.18,"z_sale_to_list":1.0,"z_new_listings":394.0,"price_to_rent":14.18,"payment_vs_rent":null,"gross_rental_yield":7.05,"state_abbr":"NJ","_lat":40.22,"_lon":-74.74},{"RegionName":"Montgomery, AL","StateName":"AL","cbsa_code":"394875","zhvi_current":214098.61,"zori_rent":1401.96,"z_inventory":1706.0,"z_price_cuts_pct":0.22,"z_sale_to_list":0.97,"z_new_listings":498.0,"price_to_rent":12.73,"payment_vs_rent":null,"gross_rental_yield":7.86,"state_abbr":"AL","_lat":32.37,"_lon":-86.31},{"RegionName":"Davenport, IA","StateName":"IL","cbsa_code":"394520","zhvi_current":195380.36,"zori_rent":1021.44,"z_inventory":1068.0,"z_price_cuts_pct":0.2,"z_sale_to_list":0.98,"z_new_listings":463.0,"price_to_rent":15.94,"payment_vs_rent":null,"gross_rental_yield":6.27,"state_abbr":"IL","_lat":null,"_lon":null},{"RegionName":"Tallahassee, FL","StateName":"FL","cbsa_code":"395146","zhvi_current":285256.42,"zori_rent":1530.26,"z_inventory":1512.0,"z_price_cuts_pct":0.23,"z_sale_to_list":0.97,"z_new_listings":442.0,"price_to_rent":15.53,"payment_vs_rent":null,"gross_rental_yield":6.44,"state_abbr":"FL","_lat":30.43,"_lon":-84.26},{"RegionName":"Eugene, OR","StateName":"OR","cbsa_code":"394576","zhvi_current":459365.73,"zori_rent":1779.51,"z_inventory":1014.0,"z_price_cuts_pct":0.23,"z_sale_to_list":0.99,"z_new_listings":400.0,"price_to_rent":21.51,"payment_vs_rent":null,"gross_rental_yield":4.65,"state_abbr":"OR","_lat":44.07,"_lon":-123.08},{"RegionName":"Naples, FL","StateName":"FL","cbsa_code":"394901","zhvi_current":556339.02,"zori_rent":2739.09,"z_inventory":7622.0,"z_price_cuts_pct":0.25,"z_sale_to_list":0.94,"z_new_listings":1124.0,"price_to_rent":16.93,"payment_vs_rent":null,"gross_rental_yield":5.91,"state_abbr":"FL","_lat":26.14,"_lon":-81.8},{"RegionName":"Ann Arbor, MI","StateName":"MI","cbsa_code":"394332","zhvi_current":422944.64,"zori_rent":2068.11,"z_inventory":858.0,"z_price_cuts_pct":0.19,"z_sale_to_list":1.0,"z_new_listings":439.0,"price_to_rent":17.04,"payment_vs_rent":null,"gross_rental_yield":5.87,"state_abbr":"MI","_lat":42.28,"_lon":-83.78},{"RegionName":"Ocala, FL","StateName":"FL","cbsa_code":"394927","zhvi_current":273318.2,"zori_rent":1615.38,"z_inventory":3802.0,"z_price_cuts_pct":0.27,"z_sale_to_list":0.96,"z_new_listings":749.0,"price_to_rent":14.1,"payment_vs_rent":null,"gross_rental_yield":7.09,"state_abbr":"FL","_lat":29.2,"_lon":-82.1},{"RegionName":"Hickory, NC","StateName":"NC","cbsa_code":"394679","zhvi_current":271738.62,"zori_rent":1496.15,"z_inventory":1386.0,"z_price_cuts_pct":0.23,"z_sale_to_list":0.97,"z_new_listings":376.0,"price_to_rent":15.14,"payment_vs_rent":null,"gross_rental_yield":6.61,"state_abbr":"NC","_lat":35.76,"_lon":-81.33},{"RegionName":"Huntington, WV","StateName":"OH","cbsa_code":"394697","zhvi_current":166505.61,"zori_rent":1094.3,"z_inventory":923.0,"z_price_cuts_pct":0.22,"z_sale_to_list":0.96,"z_new_listings":344.0,"price_to_rent":12.68,"payment_vs_rent":null,"gross_rental_yield":7.89,"state_abbr":"OH","_lat":null,"_lon":null},{"RegionName":"Fort Collins, CO","StateName":"CO","cbsa_code":"394602","zhvi_current":556499.55,"zori_rent":1927.85,"z_inventory":1902.0,"z_price_cuts_pct":0.27,"z_sale_to_list":0.99,"z_new_listings":748.0,"price_to_rent":24.06,"payment_vs_rent":null,"gross_rental_yield":4.16,"state_abbr":"CO","_lat":40.58,"_lon":-105.1},{"RegionName":"Rockford, IL","StateName":"IL","cbsa_code":"395033","zhvi_current":221367.99,"zori_rent":1319.19,"z_inventory":678.0,"z_price_cuts_pct":0.16,"z_sale_to_list":0.99,"z_new_listings":349.0,"price_to_rent":13.98,"payment_vs_rent":null,"gross_rental_yield":7.15,"state_abbr":"IL","_lat":42.29,"_lon":-89.12},{"RegionName":"Lincoln, NE","StateName":"NE","cbsa_code":"394796","zhvi_current":304242.02,"zori_rent":1344.03,"z_inventory":931.0,"z_price_cuts_pct":0.23,"z_sale_to_list":0.99,"z_new_listings":442.0,"price_to_rent":18.86,"payment_vs_rent":null,"gross_rental_yield":5.3,"state_abbr":"NE","_lat":40.82,"_lon":-96.71},{"RegionName":"Gainesville, FL","StateName":"FL","cbsa_code":"394622","zhvi_current":306604.6,"zori_rent":1681.0,"z_inventory":1765.0,"z_price_cuts_pct":0.25,"z_sale_to_list":0.96,"z_new_listings":451.0,"price_to_rent":15.2,"payment_vs_rent":null,"gross_rental_yield":6.58,"state_abbr":"FL","_lat":29.65,"_lon":-82.31},{"RegionName":"Boulder, CO","StateName":"CO","cbsa_code":"394405","zhvi_current":727953.92,"zori_rent":2256.88,"z_inventory":1579.0,"z_price_cuts_pct":0.27,"z_sale_to_list":0.98,"z_new_listings":585.0,"price_to_rent":26.88,"payment_vs_rent":null,"gross_rental_yield":3.72,"state_abbr":"CO","_lat":40.05,"_lon":-105.21},{"RegionName":"Green Bay, WI","StateName":"WI","cbsa_code":"394646","zhvi_current":346516.67,"zori_rent":1178.76,"z_inventory":981.0,"z_price_cuts_pct":0.1,"z_sale_to_list":0.99,"z_new_listings":345.0,"price_to_rent":24.5,"payment_vs_rent":null,"gross_rental_yield":4.08,"state_abbr":"WI","_lat":44.49,"_lon":-88.02},{"RegionName":"Columbus, GA","StateName":"GA","cbsa_code":"394488","zhvi_current":209527.16,"zori_rent":1278.49,"z_inventory":1137.0,"z_price_cuts_pct":0.21,"z_sale_to_list":0.99,"z_new_listings":368.0,"price_to_rent":13.66,"payment_vs_rent":null,"gross_rental_yield":7.32,"state_abbr":"GA","_lat":32.47,"_lon":-84.98},{"RegionName":"South Bend, IN","StateName":"IN","cbsa_code":"395107","zhvi_current":238866.08,"zori_rent":1340.01,"z_inventory":957.0,"z_price_cuts_pct":0.2,"z_sale_to_list":0.99,"z_new_listings":414.0,"price_to_rent":14.85,"payment_vs_rent":null,"gross_rental_yield":6.73,"state_abbr":"IN","_lat":41.67,"_lon":-86.25},{"RegionName":"Spartanburg, SC","StateName":"SC","cbsa_code":"395109","zhvi_current":279792.45,"zori_rent":1473.48,"z_inventory":1687.0,"z_price_cuts_pct":0.31,"z_sale_to_list":0.98,"z_new_listings":494.0,"price_to_rent":15.82,"payment_vs_rent":null,"gross_rental_yield":6.32,"state_abbr":"SC","_lat":34.94,"_lon":-81.97},{"RegionName":"Greeley, CO","StateName":"CO","cbsa_code":"394645","zhvi_current":497279.16,"zori_rent":1728.11,"z_inventory":1453.0,"z_price_cuts_pct":0.29,"z_sale_to_list":0.99,"z_new_listings":547.0,"price_to_rent":23.98,"payment_vs_rent":null,"gross_rental_yield":4.17,"state_abbr":"CO","_lat":40.41,"_lon":-104.7},{"RegionName":"Lubbock, TX","StateName":"TX","cbsa_code":"394808","zhvi_current":213765.77,"zori_rent":1419.82,"z_inventory":1789.0,"z_price_cuts_pct":0.24,"z_sale_to_list":0.97,"z_new_listings":512.0,"price_to_rent":12.55,"payment_vs_rent":null,"gross_rental_yield":7.97,"state_abbr":"TX","_lat":33.59,"_lon":-101.86},{"RegionName":"Clarksville, TN","StateName":"TN","cbsa_code":"394471","zhvi_current":292989.55,"zori_rent":1341.81,"z_inventory":1885.0,"z_price_cuts_pct":0.27,"z_sale_to_list":0.98,"z_new_listings":610.0,"price_to_rent":18.2,"payment_vs_rent":null,"gross_rental_yield":5.5,"state_abbr":"TN","_lat":36.52,"_lon":-87.35},{"RegionName":"Roanoke, VA","StateName":"VA","cbsa_code":"395028","zhvi_current":301138.58,"zori_rent":1402.77,"z_inventory":1243.0,"z_price_cuts_pct":0.26,"z_sale_to_list":0.98,"z_new_listings":468.0,"price_to_rent":17.89,"payment_vs_rent":null,"gross_rental_yield":5.59,"state_abbr":"VA","_lat":37.29,"_lon":-80.06},{"RegionName":"Evansville, IN","StateName":"IN","cbsa_code":"394579","zhvi_current":226752.52,"zori_rent":1086.56,"z_inventory":1099.0,"z_price_cuts_pct":0.24,"z_sale_to_list":0.98,"z_new_listings":415.0,"price_to_rent":17.39,"payment_vs_rent":null,"gross_rental_yield":5.75,"state_abbr":"IN","_lat":37.97,"_lon":-87.57},{"RegionName":"Kingsport, TN","StateName":"TN","cbsa_code":"394747","zhvi_current":246241.89,"zori_rent":1349.65,"z_inventory":1254.0,"z_price_cuts_pct":0.3,"z_sale_to_list":0.96,"z_new_listings":428.0,"price_to_rent":15.2,"payment_vs_rent":null,"gross_rental_yield":6.58,"state_abbr":"TN","_lat":36.55,"_lon":-82.55},{"RegionName":"Kennewick, WA","StateName":"WA","cbsa_code":"394741","zhvi_current":441524.13,"zori_rent":1713.07,"z_inventory":991.0,"z_price_cuts_pct":0.27,"z_sale_to_list":0.99,"z_new_listings":346.0,"price_to_rent":21.48,"payment_vs_rent":null,"gross_rental_yield":4.66,"state_abbr":"WA","_lat":46.21,"_lon":-119.17},{"RegionName":"Utica, NY","StateName":"NY","cbsa_code":"395179","zhvi_current":230265.11,"zori_rent":1403.82,"z_inventory":632.0,"z_price_cuts_pct":0.2,"z_sale_to_list":0.97,"z_new_listings":244.0,"price_to_rent":13.67,"payment_vs_rent":null,"gross_rental_yield":7.32,"state_abbr":"NY","_lat":43.09,"_lon":-75.23},{"RegionName":"Hagerstown, MD","StateName":"MD","cbsa_code":"394660","zhvi_current":324996.88,"zori_rent":1595.96,"z_inventory":945.0,"z_price_cuts_pct":0.23,"z_sale_to_list":0.99,"z_new_listings":400.0,"price_to_rent":16.97,"payment_vs_rent":null,"gross_rental_yield":5.89,"state_abbr":"MD","_lat":39.63,"_lon":-77.74},{"RegionName":"Duluth, MN","StateName":"MN","cbsa_code":"394543","zhvi_current":264349.61,"zori_rent":1381.16,"z_inventory":925.0,"z_price_cuts_pct":0.17,"z_sale_to_list":0.98,"z_new_listings":421.0,"price_to_rent":15.95,"payment_vs_rent":null,"gross_rental_yield":6.27,"state_abbr":"MN","_lat":47.09,"_lon":-91.85},{"RegionName":"Olympia, WA","StateName":"WA","cbsa_code":"394937","zhvi_current":533918.05,"zori_rent":2041.06,"z_inventory":948.0,"z_price_cuts_pct":0.25,"z_sale_to_list":1.0,"z_new_listings":429.0,"price_to_rent":21.8,"payment_vs_rent":null,"gross_rental_yield":4.59,"state_abbr":"WA","_lat":47.01,"_lon":-122.88},{"RegionName":"Longview, TX","StateName":"TX","cbsa_code":"394803","zhvi_current":220865.24,"zori_rent":1203.06,"z_inventory":1472.0,"z_price_cuts_pct":0.23,"z_sale_to_list":0.96,"z_new_listings":301.0,"price_to_rent":15.3,"payment_vs_rent":null,"gross_rental_yield":6.54,"state_abbr":"TX","_lat":32.53,"_lon":-94.72},{"RegionName":"Wilmington, NC","StateName":"NC","cbsa_code":"395229","zhvi_current":446210.36,"zori_rent":1707.63,"z_inventory":1841.0,"z_price_cuts_pct":0.26,"z_sale_to_list":0.98,"z_new_listings":605.0,"price_to_rent":21.78,"payment_vs_rent":null,"gross_rental_yield":4.59,"state_abbr":"NC","_lat":34.23,"_lon":-77.94},{"RegionName":"San Luis Obispo, CA","StateName":"CA","cbsa_code":"395061","zhvi_current":909698.57,"zori_rent":2855.4,"z_inventory":889.0,"z_price_cuts_pct":0.21,"z_sale_to_list":0.99,"z_new_listings":321.0,"price_to_rent":26.55,"payment_vs_rent":null,"gross_rental_yield":3.77,"state_abbr":"CA","_lat":35.26,"_lon":-120.65},{"RegionName":"Crestview, FL","StateName":"FL","cbsa_code":"753875","zhvi_current":441041.76,"zori_rent":1997.38,"z_inventory":5158.0,"z_price_cuts_pct":0.22,"z_sale_to_list":0.96,"z_new_listings":1091.0,"price_to_rent":18.4,"payment_vs_rent":null,"gross_rental_yield":5.43,"state_abbr":"FL","_lat":30.77,"_lon":-86.55},{"RegionName":"Merced, CA","StateName":"CA","cbsa_code":"394851","zhvi_current":419170.87,"zori_rent":1975.02,"z_inventory":560.0,"z_price_cuts_pct":0.19,"z_sale_to_list":1.01,"z_new_listings":181.0,"price_to_rent":17.69,"payment_vs_rent":null,"gross_rental_yield":5.65,"state_abbr":"CA","_lat":37.3,"_lon":-120.46},{"RegionName":"Waco, TX","StateName":"TX","cbsa_code":"395197","zhvi_current":256771.86,"zori_rent":1403.61,"z_inventory":1582.0,"z_price_cuts_pct":0.27,"z_sale_to_list":0.97,"z_new_listings":382.0,"price_to_rent":15.24,"payment_vs_rent":null,"gross_rental_yield":6.56,"state_abbr":"TX","_lat":31.55,"_lon":-97.14},{"RegionName":"Cedar Rapids, IA","StateName":"IA","cbsa_code":"394447","zhvi_current":244344.18,"zori_rent":1234.16,"z_inventory":843.0,"z_price_cuts_pct":0.18,"z_sale_to_list":0.98,"z_new_listings":375.0,"price_to_rent":16.5,"payment_vs_rent":null,"gross_rental_yield":6.06,"state_abbr":"IA","_lat":41.97,"_lon":-91.66},{"RegionName":"Atlantic City, NJ","StateName":"NJ","cbsa_code":"394348","zhvi_current":384211.06,"zori_rent":2150.97,"z_inventory":1434.0,"z_price_cuts_pct":0.2,"z_sale_to_list":0.97,"z_new_listings":422.0,"price_to_rent":14.89,"payment_vs_rent":null,"gross_rental_yield":6.72,"state_abbr":"NJ","_lat":39.37,"_lon":-74.43},{"RegionName":"Bremerton, WA","StateName":"WA","cbsa_code":"394412","zhvi_current":586379.95,"zori_rent":2065.23,"z_inventory":759.0,"z_price_cuts_pct":0.22,"z_sale_to_list":1.0,"z_new_listings":392.0,"price_to_rent":23.66,"payment_vs_rent":null,"gross_rental_yield":4.23,"state_abbr":"WA","_lat":47.6,"_lon":-122.63},{"RegionName":"Sioux Falls, SD","StateName":"SD","cbsa_code":"395103","zhvi_current":342935.76,"zori_rent":1309.39,"z_inventory":1290.0,"z_price_cuts_pct":0.19,"z_sale_to_list":0.98,"z_new_listings":445.0,"price_to_rent":21.83,"payment_vs_rent":null,"gross_rental_yield":4.58,"state_abbr":"SD","_lat":43.6,"_lon":-96.71},{"RegionName":"Santa Cruz, CA","StateName":"CA","cbsa_code":"395065","zhvi_current":1157156.76,"zori_rent":3598.79,"z_inventory":581.0,"z_price_cuts_pct":0.21,"z_sale_to_list":1.0,"z_new_listings":227.0,"price_to_rent":26.8,"payment_vs_rent":null,"gross_rental_yield":3.73,"state_abbr":"CA","_lat":36.98,"_lon":-122.04},{"RegionName":"Erie, PA","StateName":"PA","cbsa_code":"394572","zhvi_current":224109.11,"zori_rent":1138.23,"z_inventory":384.0,"z_price_cuts_pct":0.18,"z_sale_to_list":0.98,"z_new_listings":193.0,"price_to_rent":16.41,"payment_vs_rent":null,"gross_rental_yield":6.09,"state_abbr":"PA","_lat":42.13,"_lon":-80.09},{"RegionName":"Norwich, CT","StateName":"CT","cbsa_code":"394924","zhvi_current":426278.84,"zori_rent":1977.11,"z_inventory":557.0,"z_price_cuts_pct":0.15,"z_sale_to_list":1.02,"z_new_listings":312.0,"price_to_rent":17.97,"payment_vs_rent":null,"gross_rental_yield":5.57,"state_abbr":"CT","_lat":41.54,"_lon":-72.08},{"RegionName":"Amarillo, TX","StateName":"TX","cbsa_code":"394323","zhvi_current":219904.49,"zori_rent":1292.66,"z_inventory":1067.0,"z_price_cuts_pct":0.22,"z_sale_to_list":0.98,"z_new_listings":328.0,"price_to_rent":14.18,"payment_vs_rent":null,"gross_rental_yield":7.05,"state_abbr":"TX","_lat":35.17,"_lon":-101.89},{"RegionName":"Laredo, TX","StateName":"TX","cbsa_code":"394772","zhvi_current":218391.3,"zori_rent":1369.4,"z_inventory":749.0,"z_price_cuts_pct":0.17,"z_sale_to_list":0.97,"z_new_listings":139.0,"price_to_rent":13.29,"payment_vs_rent":null,"gross_rental_yield":7.52,"state_abbr":"TX","_lat":27.52,"_lon":-99.5},{"RegionName":"Tuscaloosa, AL","StateName":"AL","cbsa_code":"395171","zhvi_current":223201.49,"zori_rent":1484.97,"z_inventory":1070.0,"z_price_cuts_pct":0.21,"z_sale_to_list":0.98,"z_new_listings":298.0,"price_to_rent":12.53,"payment_vs_rent":null,"gross_rental_yield":7.98,"state_abbr":"AL","_lat":33.2,"_lon":-87.56},{"RegionName":"College Station, TX","StateName":"TX","cbsa_code":"394483","zhvi_current":310960.99,"zori_rent":1472.16,"z_inventory":1587.0,"z_price_cuts_pct":0.22,"z_sale_to_list":0.97,"z_new_listings":422.0,"price_to_rent":17.6,"payment_vs_rent":null,"gross_rental_yield":5.68,"state_abbr":"TX","_lat":30.6,"_lon":-96.31},{"RegionName":"Kalamazoo, MI","StateName":"MI","cbsa_code":"394732","zhvi_current":279751.72,"zori_rent":1298.45,"z_inventory":674.0,"z_price_cuts_pct":0.24,"z_sale_to_list":0.98,"z_new_listings":310.0,"price_to_rent":17.95,"payment_vs_rent":null,"gross_rental_yield":5.57,"state_abbr":"MI","_lat":42.27,"_lon":-85.55},{"RegionName":"Lynchburg, VA","StateName":"VA","cbsa_code":"394811","zhvi_current":291458.86,"zori_rent":1315.5,"z_inventory":1035.0,"z_price_cuts_pct":0.24,"z_sale_to_list":0.98,"z_new_listings":385.0,"price_to_rent":18.46,"payment_vs_rent":null,"gross_rental_yield":5.42,"state_abbr":"VA","_lat":37.39,"_lon":-79.17},{"RegionName":"Charleston, WV","StateName":"WV","cbsa_code":"394455","zhvi_current":148816.77,"zori_rent":1265.09,"z_inventory":616.0,"z_price_cuts_pct":0.21,"z_sale_to_list":0.95,"z_new_listings":204.0,"price_to_rent":9.8,"payment_vs_rent":null,"gross_rental_yield":10.2,"state_abbr":"WV","_lat":38.35,"_lon":-81.63},{"RegionName":"Yakima, WA","StateName":"WA","cbsa_code":"395240","zhvi_current":355255.57,"zori_rent":1370.96,"z_inventory":590.0,"z_price_cuts_pct":0.25,"z_sale_to_list":0.99,"z_new_listings":196.0,"price_to_rent":21.59,"payment_vs_rent":null,"gross_rental_yield":4.63,"state_abbr":"WA","_lat":46.61,"_lon":-120.48},{"RegionName":"Fargo, ND","StateName":"ND","cbsa_code":"394585","zhvi_current":327853.64,"zori_rent":1156.25,"z_inventory":863.0,"z_price_cuts_pct":0.19,"z_sale_to_list":0.99,"z_new_listings":349.0,"price_to_rent":23.63,"payment_vs_rent":null,"gross_rental_yield":4.23,"state_abbr":"ND","_lat":46.9,"_lon":-96.79},{"RegionName":"Binghamton, NY","StateName":"NY","cbsa_code":"394387","zhvi_current":198435.26,"zori_rent":1313.49,"z_inventory":479.0,"z_price_cuts_pct":0.21,"z_sale_to_list":0.99,"z_new_listings":196.0,"price_to_rent":12.59,"payment_vs_rent":null,"gross_rental_yield":7.94,"state_abbr":"NY","_lat":42.15,"_lon":-75.89},{"RegionName":"Fort Smith, AR","StateName":"AR","cbsa_code":"394609","zhvi_current":205554.0,"zori_rent":1020.7,"z_inventory":1223.0,"z_price_cuts_pct":0.23,"z_sale_to_list":0.97,"z_new_listings":275.0,"price_to_rent":16.78,"payment_vs_rent":null,"gross_rental_yield":5.96,"state_abbr":"AR","_lat":35.37,"_lon":-94.41},{"RegionName":"Appleton, WI","StateName":"WI","cbsa_code":"394334","zhvi_current":350370.13,"zori_rent":1217.36,"z_inventory":603.0,"z_price_cuts_pct":0.1,"z_sale_to_list":0.99,"z_new_listings":234.0,"price_to_rent":23.98,"payment_vs_rent":null,"gross_rental_yield":4.17,"state_abbr":"WI","_lat":44.28,"_lon":-88.4},{"RegionName":"Topeka, KS","StateName":"KS","cbsa_code":"395161","zhvi_current":217682.84,"zori_rent":1258.46,"z_inventory":550.0,"z_price_cuts_pct":0.21,"z_sale_to_list":0.98,"z_new_listings":280.0,"price_to_rent":14.41,"payment_vs_rent":null,"gross_rental_yield":6.94,"state_abbr":"KS","_lat":39.05,"_lon":-95.67},{"RegionName":"Macon, GA","StateName":"GA","cbsa_code":"394813","zhvi_current":200227.83,"zori_rent":1223.15,"z_inventory":1091.0,"z_price_cuts_pct":0.24,"z_sale_to_list":0.95,"z_new_listings":271.0,"price_to_rent":13.64,"payment_vs_rent":null,"gross_rental_yield":7.33,"state_abbr":"GA","_lat":32.84,"_lon":-83.6},{"RegionName":"Tyler, TX","StateName":"TX","cbsa_code":"395174","zhvi_current":272063.5,"zori_rent":1390.99,"z_inventory":1648.0,"z_price_cuts_pct":0.25,"z_sale_to_list":0.96,"z_new_listings":367.0,"price_to_rent":16.3,"payment_vs_rent":null,"gross_rental_yield":6.14,"state_abbr":"TX","_lat":32.33,"_lon":-95.29},{"RegionName":"Barnstable Town, MA","StateName":"MA","cbsa_code":"394361","zhvi_current":764670.61,"zori_rent":2814.83,"z_inventory":1443.0,"z_price_cuts_pct":0.17,"z_sale_to_list":0.97,"z_new_listings":647.0,"price_to_rent":22.64,"payment_vs_rent":null,"gross_rental_yield":4.42,"state_abbr":"MA","_lat":null,"_lon":null},{"RegionName":"Daphne, AL","StateName":"AL","cbsa_code":"394519","zhvi_current":373113.89,"zori_rent":1663.49,"z_inventory":3544.0,"z_price_cuts_pct":0.22,"z_sale_to_list":0.97,"z_new_listings":723.0,"price_to_rent":18.69,"payment_vs_rent":null,"gross_rental_yield":5.35,"state_abbr":"AL","_lat":30.62,"_lon":-87.89},{"RegionName":"Bellingham, WA","StateName":"WA","cbsa_code":"394378","zhvi_current":620829.43,"zori_rent":2041.1,"z_inventory":876.0,"z_price_cuts_pct":0.23,"z_sale_to_list":0.99,"z_new_listings":354.0,"price_to_rent":25.35,"payment_vs_rent":null,"gross_rental_yield":3.95,"state_abbr":"WA","_lat":48.75,"_lon":-122.49},{"RegionName":"Burlington, VT","StateName":"VT","cbsa_code":"394429","zhvi_current":472552.2,"zori_rent":2095.39,"z_inventory":584.0,"z_price_cuts_pct":0.2,"z_sale_to_list":0.99,"z_new_listings":273.0,"price_to_rent":18.79,"payment_vs_rent":null,"gross_rental_yield":5.32,"state_abbr":"VT","_lat":44.48,"_lon":-73.22},{"RegionName":"Rochester, MN","StateName":"MN","cbsa_code":"395030","zhvi_current":343120.85,"zori_rent":1692.79,"z_inventory":798.0,"z_price_cuts_pct":0.23,"z_sale_to_list":0.99,"z_new_listings":369.0,"price_to_rent":16.89,"payment_vs_rent":null,"gross_rental_yield":5.92,"state_abbr":"MN","_lat":44.05,"_lon":-92.49},{"RegionName":"Lafayette, IN","StateName":"IN","cbsa_code":"753895","zhvi_current":286178.52,"zori_rent":1335.98,"z_inventory":619.0,"z_price_cuts_pct":0.21,"z_sale_to_list":0.99,"z_new_listings":272.0,"price_to_rent":17.85,"payment_vs_rent":null,"gross_rental_yield":5.6,"state_abbr":"IN","_lat":40.42,"_lon":-86.89},{"RegionName":"Champaign, IL","StateName":"IL","cbsa_code":"394454","zhvi_current":237289.95,"zori_rent":1318.63,"z_inventory":541.0,"z_price_cuts_pct":0.21,"z_sale_to_list":0.98,"z_new_listings":267.0,"price_to_rent":15.0,"payment_vs_rent":null,"gross_rental_yield":6.67,"state_abbr":"IL","_lat":40.11,"_lon":-88.24},{"RegionName":"Medford, OR","StateName":"OR","cbsa_code":"394848","zhvi_current":439492.78,"zori_rent":1840.68,"z_inventory":1023.0,"z_price_cuts_pct":0.27,"z_sale_to_list":0.98,"z_new_listings":326.0,"price_to_rent":19.9,"payment_vs_rent":null,"gross_rental_yield":5.03,"state_abbr":"OR","_lat":42.32,"_lon":-122.89},{"RegionName":"Charlottesville, VA","StateName":"VA","cbsa_code":"394459","zhvi_current":473058.48,"zori_rent":2067.64,"z_inventory":905.0,"z_price_cuts_pct":0.21,"z_sale_to_list":0.98,"z_new_listings":397.0,"price_to_rent":19.07,"payment_vs_rent":null,"gross_rental_yield":5.24,"state_abbr":"VA","_lat":38.0,"_lon":-78.48},{"RegionName":"Lake Charles, LA","StateName":"LA","cbsa_code":"394763","zhvi_current":202236.79,"zori_rent":1201.81,"z_inventory":758.0,"z_price_cuts_pct":0.21,"z_sale_to_list":0.97,"z_new_listings":146.0,"price_to_rent":14.02,"payment_vs_rent":null,"gross_rental_yield":7.13,"state_abbr":"LA","_lat":30.23,"_lon":-93.19},{"RegionName":"Las Cruces, NM","StateName":"NM","cbsa_code":"394773","zhvi_current":288338.66,"zori_rent":1465.93,"z_inventory":1067.0,"z_price_cuts_pct":0.23,"z_sale_to_list":0.98,"z_new_listings":255.0,"price_to_rent":16.39,"payment_vs_rent":null,"gross_rental_yield":6.1,"state_abbr":"NM","_lat":32.32,"_lon":-106.75},{"RegionName":"Chico, CA","StateName":"CA","cbsa_code":"394464","zhvi_current":401581.15,"zori_rent":1600.77,"z_inventory":699.0,"z_price_cuts_pct":0.24,"z_sale_to_list":0.99,"z_new_listings":228.0,"price_to_rent":20.91,"payment_vs_rent":null,"gross_rental_yield":4.78,"state_abbr":"CA","_lat":39.76,"_lon":-121.85},{"RegionName":"Hilton Head Island, SC","StateName":"SC","cbsa_code":"394681","zhvi_current":527324.46,"zori_rent":2037.12,"z_inventory":2764.0,"z_price_cuts_pct":0.25,"z_sale_to_list":0.97,"z_new_listings":715.0,"price_to_rent":21.57,"payment_vs_rent":null,"gross_rental_yield":4.64,"state_abbr":"SC","_lat":32.16,"_lon":-80.75},{"RegionName":"Athens, GA","StateName":"GA","cbsa_code":"394346","zhvi_current":373118.11,"zori_rent":1712.51,"z_inventory":933.0,"z_price_cuts_pct":0.27,"z_sale_to_list":0.98,"z_new_listings":275.0,"price_to_rent":18.16,"payment_vs_rent":null,"gross_rental_yield":5.51,"state_abbr":"GA","_lat":33.98,"_lon":-83.36},{"RegionName":"Lake Havasu City, AZ","StateName":"AZ","cbsa_code":"394765","zhvi_current":354411.76,"zori_rent":1563.26,"z_inventory":1712.0,"z_price_cuts_pct":0.25,"z_sale_to_list":0.97,"z_new_listings":413.0,"price_to_rent":18.89,"payment_vs_rent":null,"gross_rental_yield":5.29,"state_abbr":"AZ","_lat":34.49,"_lon":-114.31},{"RegionName":"Columbia, MO","StateName":"MO","cbsa_code":"394485","zhvi_current":323950.86,"zori_rent":1426.68,"z_inventory":810.0,"z_price_cuts_pct":0.21,"z_sale_to_list":0.99,"z_new_listings":325.0,"price_to_rent":18.92,"payment_vs_rent":null,"gross_rental_yield":5.28,"state_abbr":"MO","_lat":38.94,"_lon":-92.3},{"RegionName":"Springfield, IL","StateName":"IL","cbsa_code":"395114","zhvi_current":200408.71,"zori_rent":1207.67,"z_inventory":412.0,"z_price_cuts_pct":0.18,"z_sale_to_list":0.99,"z_new_listings":243.0,"price_to_rent":13.83,"payment_vs_rent":null,"gross_rental_yield":7.23,"state_abbr":"IL","_lat":39.8,"_lon":-89.65},{"RegionName":"Houma, LA","StateName":"LA","cbsa_code":"394691","zhvi_current":186621.51,"zori_rent":1305.45,"z_inventory":954.0,"z_price_cuts_pct":0.2,"z_sale_to_list":0.96,"z_new_listings":162.0,"price_to_rent":11.91,"payment_vs_rent":null,"gross_rental_yield":8.39,"state_abbr":"LA","_lat":29.59,"_lon":-90.75},{"RegionName":"Monroe, LA","StateName":"LA","cbsa_code":"394872","zhvi_current":168606.05,"zori_rent":1206.47,"z_inventory":459.0,"z_price_cuts_pct":0.21,"z_sale_to_list":0.98,"z_new_listings":124.0,"price_to_rent":11.65,"payment_vs_rent":null,"gross_rental_yield":8.59,"state_abbr":"LA","_lat":32.53,"_lon":-92.11},{"RegionName":"Elkhart, IN","StateName":"IN","cbsa_code":"394565","zhvi_current":265734.27,"zori_rent":1211.25,"z_inventory":449.0,"z_price_cuts_pct":0.2,"z_sale_to_list":0.98,"z_new_listings":197.0,"price_to_rent":18.28,"payment_vs_rent":null,"gross_rental_yield":5.47,"state_abbr":"IN","_lat":41.71,"_lon":-85.97},{"RegionName":"Johnson City, TN","StateName":"TN","cbsa_code":"394726","zhvi_current":282531.98,"zori_rent":1498.71,"z_inventory":720.0,"z_price_cuts_pct":0.3,"z_sale_to_list":0.97,"z_new_listings":257.0,"price_to_rent":15.71,"payment_vs_rent":null,"gross_rental_yield":6.37,"state_abbr":"TN","_lat":36.33,"_lon":-82.34},{"RegionName":"Yuma, AZ","StateName":"AZ","cbsa_code":"395247","zhvi_current":281358.52,"zori_rent":1464.09,"z_inventory":1014.0,"z_price_cuts_pct":0.16,"z_sale_to_list":0.98,"z_new_listings":267.0,"price_to_rent":16.01,"payment_vs_rent":null,"gross_rental_yield":6.24,"state_abbr":"AZ","_lat":32.7,"_lon":-114.64},{"RegionName":"Gainesville, GA","StateName":"GA","cbsa_code":"394623","zhvi_current":393149.73,"zori_rent":1715.95,"z_inventory":1138.0,"z_price_cuts_pct":0.27,"z_sale_to_list":0.98,"z_new_listings":311.0,"price_to_rent":19.09,"payment_vs_rent":null,"gross_rental_yield":5.24,"state_abbr":"GA","_lat":34.31,"_lon":-83.83},{"RegionName":"Jacksonville, NC","StateName":"NC","cbsa_code":"394716","zhvi_current":293312.27,"zori_rent":1537.57,"z_inventory":1137.0,"z_price_cuts_pct":0.23,"z_sale_to_list":0.99,"z_new_listings":446.0,"price_to_rent":15.9,"payment_vs_rent":null,"gross_rental_yield":6.29,"state_abbr":"NC","_lat":34.74,"_lon":-77.46},{"RegionName":"Florence, SC","StateName":"SC","cbsa_code":"394597","zhvi_current":193791.73,"zori_rent":1334.41,"z_inventory":590.0,"z_price_cuts_pct":0.24,"z_sale_to_list":0.97,"z_new_listings":153.0,"price_to_rent":12.1,"payment_vs_rent":null,"gross_rental_yield":8.26,"state_abbr":"SC","_lat":34.18,"_lon":-79.77},{"RegionName":"Hilo, HI","StateName":"HI","cbsa_code":"394680","zhvi_current":571308.48,"zori_rent":2954.28,"z_inventory":1569.0,"z_price_cuts_pct":0.2,"z_sale_to_list":0.97,"z_new_listings":290.0,"price_to_rent":16.12,"payment_vs_rent":null,"gross_rental_yield":6.21,"state_abbr":"HI","_lat":19.7,"_lon":-155.09},{"RegionName":"St. Cloud, MN","StateName":"MN","cbsa_code":"395118","zhvi_current":318863.87,"zori_rent":1247.71,"z_inventory":588.0,"z_price_cuts_pct":0.21,"z_sale_to_list":0.99,"z_new_listings":256.0,"price_to_rent":21.3,"payment_vs_rent":null,"gross_rental_yield":4.7,"state_abbr":"MN","_lat":null,"_lon":null},{"RegionName":"Racine, WI","StateName":"WI","cbsa_code":"395011","zhvi_current":316875.95,"zori_rent":1495.1,"z_inventory":459.0,"z_price_cuts_pct":0.12,"z_sale_to_list":0.98,"z_new_listings":210.0,"price_to_rent":17.66,"payment_vs_rent":null,"gross_rental_yield":5.66,"state_abbr":"WI","_lat":42.73,"_lon":-87.78},{"RegionName":"Bend, OR","StateName":"OR","cbsa_code":"394380","zhvi_current":672285.66,"zori_rent":2177.95,"z_inventory":1486.0,"z_price_cuts_pct":0.26,"z_sale_to_list":0.98,"z_new_listings":534.0,"price_to_rent":25.72,"payment_vs_rent":null,"gross_rental_yield":3.89,"state_abbr":"OR","_lat":44.09,"_lon":-121.29},{"RegionName":"Saginaw, MI","StateName":"MI","cbsa_code":"395047","zhvi_current":173341.39,"zori_rent":1105.57,"z_inventory":586.0,"z_price_cuts_pct":0.22,"z_sale_to_list":0.97,"z_new_listings":196.0,"price_to_rent":13.07,"payment_vs_rent":null,"gross_rental_yield":7.65,"state_abbr":"MI","_lat":43.4,"_lon":-83.92},{"RegionName":"Warner Robins, GA","StateName":"GA","cbsa_code":"395202","zhvi_current":253414.09,"zori_rent":1567.23,"z_inventory":738.0,"z_price_cuts_pct":0.24,"z_sale_to_list":0.98,"z_new_listings":239.0,"price_to_rent":13.47,"payment_vs_rent":null,"gross_rental_yield":7.42,"state_abbr":"GA","_lat":32.59,"_lon":-83.64},{"RegionName":"Terre Haute, IN","StateName":"IN","cbsa_code":"395151","zhvi_current":167654.08,"zori_rent":966.4,"z_inventory":628.0,"z_price_cuts_pct":0.21,"z_sale_to_list":0.96,"z_new_listings":211.0,"price_to_rent":14.46,"payment_vs_rent":null,"gross_rental_yield":6.92,"state_abbr":"IN","_lat":39.47,"_lon":-87.41},{"RegionName":"Torrington, CT","StateName":"CT","cbsa_code":"395162","zhvi_current":424744.09,"zori_rent":1772.66,"z_inventory":549.0,"z_price_cuts_pct":0.18,"z_sale_to_list":0.98,"z_new_listings":261.0,"price_to_rent":19.97,"payment_vs_rent":null,"gross_rental_yield":5.01,"state_abbr":"CT","_lat":41.81,"_lon":-73.12},{"RegionName":"Punta Gorda, FL","StateName":"FL","cbsa_code":"395009","zhvi_current":298144.25,"zori_rent":1889.2,"z_inventory":3769.0,"z_price_cuts_pct":0.26,"z_sale_to_list":0.95,"z_new_listings":604.0,"price_to_rent":13.15,"payment_vs_rent":null,"gross_rental_yield":7.6,"state_abbr":"FL","_lat":26.92,"_lon":-82.05},{"RegionName":"Billings, MT","StateName":"MT","cbsa_code":"394386","zhvi_current":410665.97,"zori_rent":1435.07,"z_inventory":869.0,"z_price_cuts_pct":0.22,"z_sale_to_list":0.99,"z_new_listings":308.0,"price_to_rent":23.85,"payment_vs_rent":null,"gross_rental_yield":4.19,"state_abbr":"MT","_lat":45.77,"_lon":-108.5},{"RegionName":"Redding, CA","StateName":"CA","cbsa_code":"395018","zhvi_current":375604.3,"zori_rent":1604.22,"z_inventory":769.0,"z_price_cuts_pct":0.26,"z_sale_to_list":0.98,"z_new_listings":269.0,"price_to_rent":19.51,"payment_vs_rent":null,"gross_rental_yield":5.13,"state_abbr":"CA","_lat":40.56,"_lon":-122.41},{"RegionName":"Kingston, NY","StateName":"NY","cbsa_code":"394748","zhvi_current":442041.09,"zori_rent":2064.67,"z_inventory":569.0,"z_price_cuts_pct":0.16,"z_sale_to_list":0.97,"z_new_listings":214.0,"price_to_rent":17.84,"payment_vs_rent":null,"gross_rental_yield":5.6,"state_abbr":"NY","_lat":41.93,"_lon":-74.02},{"RegionName":"Panama City, FL","StateName":"FL","cbsa_code":"394960","zhvi_current":345838.36,"zori_rent":1676.55,"z_inventory":3206.0,"z_price_cuts_pct":0.25,"z_sale_to_list":0.95,"z_new_listings":588.0,"price_to_rent":17.19,"payment_vs_rent":null,"gross_rental_yield":5.82,"state_abbr":"FL","_lat":30.16,"_lon":-85.65},{"RegionName":"Joplin, MO","StateName":"MO","cbsa_code":"394729","zhvi_current":226856.87,"zori_rent":1312.13,"z_inventory":825.0,"z_price_cuts_pct":0.25,"z_sale_to_list":0.97,"z_new_listings":271.0,"price_to_rent":14.41,"payment_vs_rent":null,"gross_rental_yield":6.94,"state_abbr":"MO","_lat":37.1,"_lon":-94.51},{"RegionName":"Dover, DE","StateName":"DE","cbsa_code":"394539","zhvi_current":372156.15,"zori_rent":1712.93,"z_inventory":507.0,"z_price_cuts_pct":0.25,"z_sale_to_list":0.99,"z_new_listings":212.0,"price_to_rent":18.11,"payment_vs_rent":null,"gross_rental_yield":5.52,"state_abbr":"DE","_lat":39.16,"_lon":-75.54},{"RegionName":"El Centro, CA","StateName":"CA","cbsa_code":"394559","zhvi_current":379330.35,"zori_rent":1869.05,"z_inventory":234.0,"z_price_cuts_pct":0.16,"z_sale_to_list":0.99,"z_new_listings":77.0,"price_to_rent":16.91,"payment_vs_rent":null,"gross_rental_yield":5.91,"state_abbr":"CA","_lat":32.79,"_lon":-115.57},{"RegionName":"Jackson, TN","StateName":"TN","cbsa_code":"394712","zhvi_current":208152.84,"zori_rent":1433.91,"z_inventory":749.0,"z_price_cuts_pct":0.27,"z_sale_to_list":0.96,"z_new_listings":212.0,"price_to_rent":12.1,"payment_vs_rent":null,"gross_rental_yield":8.27,"state_abbr":"TN","_lat":35.61,"_lon":-88.81},{"RegionName":"Yuba City, CA","StateName":"CA","cbsa_code":"395246","zhvi_current":432169.36,"zori_rent":1927.72,"z_inventory":500.0,"z_price_cuts_pct":0.21,"z_sale_to_list":0.99,"z_new_listings":189.0,"price_to_rent":18.68,"payment_vs_rent":null,"gross_rental_yield":5.35,"state_abbr":"CA","_lat":39.13,"_lon":-121.62},{"RegionName":"Bowling Green, KY","StateName":"KY","cbsa_code":"394406","zhvi_current":267046.54,"zori_rent":1265.1,"z_inventory":991.0,"z_price_cuts_pct":0.25,"z_sale_to_list":0.97,"z_new_listings":236.0,"price_to_rent":17.59,"payment_vs_rent":null,"gross_rental_yield":5.68,"state_abbr":"KY","_lat":37.01,"_lon":-86.46},{"RegionName":"St. George, UT","StateName":"UT","cbsa_code":"395119","zhvi_current":530008.5,"zori_rent":1928.59,"z_inventory":2221.0,"z_price_cuts_pct":0.28,"z_sale_to_list":0.98,"z_new_listings":493.0,"price_to_rent":22.9,"payment_vs_rent":null,"gross_rental_yield":4.37,"state_abbr":"UT","_lat":null,"_lon":null},{"RegionName":"Muskegon, MI","StateName":"MI","cbsa_code":"394896","zhvi_current":255270.62,"zori_rent":1169.38,"z_inventory":508.0,"z_price_cuts_pct":0.21,"z_sale_to_list":0.98,"z_new_listings":221.0,"price_to_rent":18.19,"payment_vs_rent":null,"gross_rental_yield":5.5,"state_abbr":"MI","_lat":43.23,"_lon":-86.25},{"RegionName":"Abilene, TX","StateName":"TX","cbsa_code":"394299","zhvi_current":217008.95,"zori_rent":1826.68,"z_inventory":527.0,"z_price_cuts_pct":0.17,"z_sale_to_list":0.98,"z_new_listings":222.0,"price_to_rent":9.9,"payment_vs_rent":null,"gross_rental_yield":10.1,"state_abbr":"TX","_lat":32.47,"_lon":-99.72},{"RegionName":"Iowa City, IA","StateName":"IA","cbsa_code":"394707","zhvi_current":302063.48,"zori_rent":1395.7,"z_inventory":696.0,"z_price_cuts_pct":0.16,"z_sale_to_list":0.98,"z_new_listings":273.0,"price_to_rent":18.04,"payment_vs_rent":null,"gross_rental_yield":5.54,"state_abbr":"IA","_lat":41.65,"_lon":-91.51},{"RegionName":"Auburn, AL","StateName":"AL","cbsa_code":"394351","zhvi_current":349841.9,"zori_rent":1756.95,"z_inventory":876.0,"z_price_cuts_pct":0.23,"z_sale_to_list":0.98,"z_new_listings":302.0,"price_to_rent":16.59,"payment_vs_rent":null,"gross_rental_yield":6.03,"state_abbr":"AL","_lat":32.6,"_lon":-85.49},{"RegionName":"Midland, TX","StateName":"TX","cbsa_code":"394860","zhvi_current":330428.23,"zori_rent":1608.9,"z_inventory":811.0,"z_price_cuts_pct":0.32,"z_sale_to_list":0.98,"z_new_listings":269.0,"price_to_rent":17.11,"payment_vs_rent":null,"gross_rental_yield":5.84,"state_abbr":"TX","_lat":31.99,"_lon":-102.06},{"RegionName":"Bloomington, IL","StateName":"IL","cbsa_code":"753869","zhvi_current":260133.83,"zori_rent":1361.33,"z_inventory":308.0,"z_price_cuts_pct":0.18,"z_sale_to_list":0.99,"z_new_listings":187.0,"price_to_rent":15.92,"payment_vs_rent":null,"gross_rental_yield":6.28,"state_abbr":"IL","_lat":40.48,"_lon":-88.99},{"RegionName":"Hattiesburg, MS","StateName":"MS","cbsa_code":"394671","zhvi_current":218043.57,"zori_rent":1435.58,"z_inventory":642.0,"z_price_cuts_pct":0.23,"z_sale_to_list":0.97,"z_new_listings":168.0,"price_to_rent":12.66,"payment_vs_rent":null,"gross_rental_yield":7.9,"state_abbr":"MS","_lat":31.31,"_lon":-89.31},{"RegionName":"Oshkosh, WI","StateName":"WI","cbsa_code":"394944","zhvi_current":304542.59,"zori_rent":1179.88,"z_inventory":451.0,"z_price_cuts_pct":0.07,"z_sale_to_list":null,"z_new_listings":160.0,"price_to_rent":21.51,"payment_vs_rent":null,"gross_rental_yield":4.65,"state_abbr":"WI","_lat":44.02,"_lon":-88.54},{"RegionName":"Eau Claire, WI","StateName":"WI","cbsa_code":"394555","zhvi_current":327163.65,"zori_rent":1219.67,"z_inventory":455.0,"z_price_cuts_pct":0.14,"z_sale_to_list":0.98,"z_new_listings":175.0,"price_to_rent":22.35,"payment_vs_rent":null,"gross_rental_yield":4.47,"state_abbr":"WI","_lat":44.78,"_lon":-91.49},{"RegionName":"Greenville, NC","StateName":"NC","cbsa_code":"394651","zhvi_current":245726.16,"zori_rent":1391.94,"z_inventory":504.0,"z_price_cuts_pct":0.25,"z_sale_to_list":0.98,"z_new_listings":192.0,"price_to_rent":14.71,"payment_vs_rent":null,"gross_rental_yield":6.8,"state_abbr":"NC","_lat":35.66,"_lon":-77.4},{"RegionName":"Burlington, NC","StateName":"NC","cbsa_code":"394428","zhvi_current":298353.44,"zori_rent":1395.26,"z_inventory":576.0,"z_price_cuts_pct":0.27,"z_sale_to_list":0.98,"z_new_listings":205.0,"price_to_rent":17.82,"payment_vs_rent":null,"gross_rental_yield":5.61,"state_abbr":"NC","_lat":36.07,"_lon":-79.46},{"RegionName":"Waterloo, IA","StateName":"IA","cbsa_code":"395210","zhvi_current":200191.15,"zori_rent":1027.15,"z_inventory":578.0,"z_price_cuts_pct":0.21,"z_sale_to_list":0.98,"z_new_listings":208.0,"price_to_rent":16.24,"payment_vs_rent":null,"gross_rental_yield":6.16,"state_abbr":"IA","_lat":42.48,"_lon":-92.37},{"RegionName":"Coeur d'Alene, ID","StateName":"ID","cbsa_code":"394480","zhvi_current":605498.02,"zori_rent":1792.89,"z_inventory":1084.0,"z_price_cuts_pct":0.18,"z_sale_to_list":0.98,"z_new_listings":405.0,"price_to_rent":28.14,"payment_vs_rent":null,"gross_rental_yield":3.55,"state_abbr":"ID","_lat":null,"_lon":null},{"RegionName":"East Stroudsburg, PA","StateName":"PA","cbsa_code":"394553","zhvi_current":314095.24,"zori_rent":1845.75,"z_inventory":1214.0,"z_price_cuts_pct":0.17,"z_sale_to_list":0.98,"z_new_listings":373.0,"price_to_rent":14.18,"payment_vs_rent":null,"gross_rental_yield":7.05,"state_abbr":"PA","_lat":41.04,"_lon":-75.17},{"RegionName":"Pueblo, CO","StateName":"CO","cbsa_code":"395007","zhvi_current":287672.38,"zori_rent":1339.86,"z_inventory":1109.0,"z_price_cuts_pct":0.27,"z_sale_to_list":0.98,"z_new_listings":268.0,"price_to_rent":17.89,"payment_vs_rent":null,"gross_rental_yield":5.59,"state_abbr":"CO","_lat":38.29,"_lon":-104.58},{"RegionName":"Blacksburg, VA","StateName":"VA","cbsa_code":"394392","zhvi_current":291346.36,"zori_rent":1694.36,"z_inventory":485.0,"z_price_cuts_pct":0.2,"z_sale_to_list":0.99,"z_new_listings":213.0,"price_to_rent":14.33,"payment_vs_rent":null,"gross_rental_yield":6.98,"state_abbr":"VA","_lat":37.23,"_lon":-80.43},{"RegionName":"Wausau, WI","StateName":"WI","cbsa_code":"395215","zhvi_current":274194.46,"zori_rent":1024.21,"z_inventory":395.0,"z_price_cuts_pct":0.11,"z_sale_to_list":0.99,"z_new_listings":152.0,"price_to_rent":22.31,"payment_vs_rent":null,"gross_rental_yield":4.48,"state_abbr":"WI","_lat":44.96,"_lon":-89.63},{"RegionName":"Kahului, HI","StateName":"HI","cbsa_code":"394731","zhvi_current":997306.6,"zori_rent":3571.75,"z_inventory":1529.0,"z_price_cuts_pct":0.18,"z_sale_to_list":0.95,"z_new_listings":206.0,"price_to_rent":23.27,"payment_vs_rent":null,"gross_rental_yield":4.3,"state_abbr":"HI","_lat":20.88,"_lon":-156.48},{"RegionName":"Janesville, WI","StateName":"WI","cbsa_code":"394720","zhvi_current":296341.84,"zori_rent":1177.99,"z_inventory":466.0,"z_price_cuts_pct":0.14,"z_sale_to_list":0.99,"z_new_listings":176.0,"price_to_rent":20.96,"payment_vs_rent":null,"gross_rental_yield":4.77,"state_abbr":"WI","_lat":42.69,"_lon":-89.03},{"RegionName":"Tupelo, MS","StateName":"MS","cbsa_code":"395170","zhvi_current":193424.27,"zori_rent":1264.39,"z_inventory":616.0,"z_price_cuts_pct":0.21,"z_sale_to_list":null,"z_new_listings":159.0,"price_to_rent":12.75,"payment_vs_rent":null,"gross_rental_yield":7.84,"state_abbr":"MS","_lat":34.25,"_lon":-88.72},{"RegionName":"Bloomington, IN","StateName":"IN","cbsa_code":"394393","zhvi_current":303238.23,"zori_rent":1410.42,"z_inventory":867.0,"z_price_cuts_pct":0.22,"z_sale_to_list":0.97,"z_new_listings":243.0,"price_to_rent":17.92,"payment_vs_rent":null,"gross_rental_yield":5.58,"state_abbr":"IN","_lat":39.14,"_lon":-86.51},{"RegionName":"Odessa, TX","StateName":"TX","cbsa_code":"394930","zhvi_current":256699.99,"zori_rent":1570.62,"z_inventory":551.0,"z_price_cuts_pct":0.28,"z_sale_to_list":0.98,"z_new_listings":174.0,"price_to_rent":13.62,"payment_vs_rent":null,"gross_rental_yield":7.34,"state_abbr":"TX","_lat":31.85,"_lon":-102.37},{"RegionName":"Jackson, MI","StateName":"MI","cbsa_code":"394710","zhvi_current":227286.92,"zori_rent":1134.3,"z_inventory":446.0,"z_price_cuts_pct":0.23,"z_sale_to_list":0.97,"z_new_listings":182.0,"price_to_rent":16.7,"payment_vs_rent":null,"gross_rental_yield":5.99,"state_abbr":"MI","_lat":42.25,"_lon":-84.39},{"RegionName":"State College, PA","StateName":"PA","cbsa_code":"395125","zhvi_current":353680.01,"zori_rent":1795.56,"z_inventory":303.0,"z_price_cuts_pct":0.18,"z_sale_to_list":1.0,"z_new_listings":150.0,"price_to_rent":16.41,"payment_vs_rent":null,"gross_rental_yield":6.09,"state_abbr":"PA","_lat":40.79,"_lon":-77.85},{"RegionName":"Sebastian, FL","StateName":"FL","cbsa_code":"395079","zhvi_current":365819.41,"zori_rent":2172.92,"z_inventory":2004.0,"z_price_cuts_pct":0.24,"z_sale_to_list":0.95,"z_new_listings":350.0,"price_to_rent":14.03,"payment_vs_rent":null,"gross_rental_yield":7.13,"state_abbr":"FL","_lat":27.79,"_lon":-80.48},{"RegionName":"Madera, CA","StateName":"CA","cbsa_code":"394814","zhvi_current":425751.83,"zori_rent":2338.57,"z_inventory":614.0,"z_price_cuts_pct":0.21,"z_sale_to_list":0.98,"z_new_listings":165.0,"price_to_rent":15.17,"payment_vs_rent":null,"gross_rental_yield":6.59,"state_abbr":"CA","_lat":36.95,"_lon":-119.88},{"RegionName":"Decatur, AL","StateName":"AL","cbsa_code":"394523","zhvi_current":232614.13,"zori_rent":1115.76,"z_inventory":637.0,"z_price_cuts_pct":0.26,"z_sale_to_list":0.97,"z_new_listings":180.0,"price_to_rent":17.37,"payment_vs_rent":null,"gross_rental_yield":5.76,"state_abbr":"AL","_lat":34.59,"_lon":-86.99},{"RegionName":"Chambersburg, PA","StateName":"PA","cbsa_code":"394453","zhvi_current":291376.22,"zori_rent":1326.25,"z_inventory":372.0,"z_price_cuts_pct":0.27,"z_sale_to_list":0.99,"z_new_listings":166.0,"price_to_rent":18.31,"payment_vs_rent":null,"gross_rental_yield":5.46,"state_abbr":"PA","_lat":39.93,"_lon":-77.66},{"RegionName":"Vineland, NJ","StateName":"NJ","cbsa_code":"395193","zhvi_current":278722.78,"zori_rent":1603.67,"z_inventory":399.0,"z_price_cuts_pct":0.2,"z_sale_to_list":0.99,"z_new_listings":130.0,"price_to_rent":14.48,"payment_vs_rent":null,"gross_rental_yield":6.9,"state_abbr":"NJ","_lat":39.48,"_lon":-75.01},{"RegionName":"Idaho Falls, ID","StateName":"ID","cbsa_code":"394703","zhvi_current":413630.58,"zori_rent":1429.84,"z_inventory":704.0,"z_price_cuts_pct":0.23,"z_sale_to_list":0.99,"z_new_listings":250.0,"price_to_rent":24.11,"payment_vs_rent":null,"gross_rental_yield":4.15,"state_abbr":"ID","_lat":43.52,"_lon":-111.99},{"RegionName":"Grand Junction, CO","StateName":"CO","cbsa_code":"394639","zhvi_current":436543.07,"zori_rent":1773.19,"z_inventory":1005.0,"z_price_cuts_pct":0.27,"z_sale_to_list":0.99,"z_new_listings":327.0,"price_to_rent":20.52,"payment_vs_rent":null,"gross_rental_yield":4.87,"state_abbr":"CO","_lat":39.08,"_lon":-108.55},{"RegionName":"Elizabethtown, KY","StateName":"KY","cbsa_code":"394563","zhvi_current":253919.81,"zori_rent":1287.35,"z_inventory":726.0,"z_price_cuts_pct":0.27,"z_sale_to_list":0.98,"z_new_listings":205.0,"price_to_rent":16.44,"payment_vs_rent":null,"gross_rental_yield":6.08,"state_abbr":"KY","_lat":37.71,"_lon":-85.86},{"RegionName":"Niles, MI","StateName":"MI","cbsa_code":"394917","zhvi_current":282443.25,"zori_rent":1355.26,"z_inventory":582.0,"z_price_cuts_pct":0.22,"z_sale_to_list":0.97,"z_new_listings":237.0,"price_to_rent":17.37,"payment_vs_rent":null,"gross_rental_yield":5.76,"state_abbr":"MI","_lat":41.82,"_lon":-86.24},{"RegionName":"Monroe, MI","StateName":"MI","cbsa_code":"394873","zhvi_current":269111.97,"zori_rent":1210.96,"z_inventory":339.0,"z_price_cuts_pct":0.19,"z_sale_to_list":0.99,"z_new_listings":145.0,"price_to_rent":18.52,"payment_vs_rent":null,"gross_rental_yield":5.4,"state_abbr":"MI","_lat":41.93,"_lon":-83.4},{"RegionName":"Santa Fe, NM","StateName":"NM","cbsa_code":"395066","zhvi_current":558895.78,"zori_rent":1966.48,"z_inventory":836.0,"z_price_cuts_pct":0.2,"z_sale_to_list":0.97,"z_new_listings":266.0,"price_to_rent":23.68,"payment_vs_rent":null,"gross_rental_yield":4.22,"state_abbr":"NM","_lat":35.7,"_lon":-105.97},{"RegionName":"Concord, NH","StateName":"NH","cbsa_code":"394493","zhvi_current":491865.52,"zori_rent":1994.6,"z_inventory":336.0,"z_price_cuts_pct":0.16,"z_sale_to_list":1.0,"z_new_listings":187.0,"price_to_rent":20.55,"payment_vs_rent":null,"gross_rental_yield":4.87,"state_abbr":"NH","_lat":43.22,"_lon":-71.53},{"RegionName":"Alexandria, LA","StateName":"LA","cbsa_code":"394314","zhvi_current":171603.6,"zori_rent":1176.22,"z_inventory":473.0,"z_price_cuts_pct":0.23,"z_sale_to_list":0.97,"z_new_listings":111.0,"price_to_rent":12.16,"payment_vs_rent":null,"gross_rental_yield":8.23,"state_abbr":"LA","_lat":31.29,"_lon":-92.46},{"RegionName":"Traverse City, MI","StateName":"MI","cbsa_code":"395163","zhvi_current":421805.96,"zori_rent":1902.59,"z_inventory":689.0,"z_price_cuts_pct":0.15,"z_sale_to_list":0.98,"z_new_listings":277.0,"price_to_rent":18.48,"payment_vs_rent":null,"gross_rental_yield":5.41,"state_abbr":"MI","_lat":44.74,"_lon":-85.62},{"RegionName":"Bangor, ME","StateName":"ME","cbsa_code":"394359","zhvi_current":280732.65,"zori_rent":1551.89,"z_inventory":590.0,"z_price_cuts_pct":0.23,"z_sale_to_list":0.96,"z_new_listings":188.0,"price_to_rent":15.07,"payment_vs_rent":null,"gross_rental_yield":6.63,"state_abbr":"ME","_lat":44.82,"_lon":-68.79},{"RegionName":"Homosassa Springs, FL","StateName":"FL","cbsa_code":"394685","zhvi_current":272839.73,"zori_rent":1724.6,"z_inventory":1764.0,"z_price_cuts_pct":0.29,"z_sale_to_list":0.96,"z_new_listings":350.0,"price_to_rent":13.18,"payment_vs_rent":null,"gross_rental_yield":7.59,"state_abbr":"FL","_lat":28.8,"_lon":-82.58},{"RegionName":"Hanford, CA","StateName":"CA","cbsa_code":"394662","zhvi_current":365078.15,"zori_rent":1969.47,"z_inventory":306.0,"z_price_cuts_pct":0.2,"z_sale_to_list":1.0,"z_new_listings":96.0,"price_to_rent":15.45,"payment_vs_rent":null,"gross_rental_yield":6.47,"state_abbr":"CA","_lat":36.33,"_lon":-119.65},{"RegionName":"Jefferson City, MO","StateName":"MO","cbsa_code":"394723","zhvi_current":275951.47,"zori_rent":1029.03,"z_inventory":369.0,"z_price_cuts_pct":0.23,"z_sale_to_list":0.99,"z_new_listings":159.0,"price_to_rent":22.35,"payment_vs_rent":null,"gross_rental_yield":4.47,"state_abbr":"MO","_lat":38.55,"_lon":-92.15},{"RegionName":"Florence, AL","StateName":"AL","cbsa_code":"394598","zhvi_current":216659.12,"zori_rent":1136.93,"z_inventory":821.0,"z_price_cuts_pct":0.24,"z_sale_to_list":0.96,"z_new_listings":225.0,"price_to_rent":15.88,"payment_vs_rent":null,"gross_rental_yield":6.3,"state_abbr":"AL","_lat":34.83,"_lon":-87.66},{"RegionName":"Dothan, AL","StateName":"AL","cbsa_code":"394537","zhvi_current":196979.44,"zori_rent":1240.97,"z_inventory":696.0,"z_price_cuts_pct":0.24,"z_sale_to_list":0.96,"z_new_listings":185.0,"price_to_rent":13.23,"payment_vs_rent":null,"gross_rental_yield":7.56,"state_abbr":"AL","_lat":31.2,"_lon":-85.42},{"RegionName":"London, KY","StateName":"KY","cbsa_code":"394802","zhvi_current":153690.69,"zori_rent":1115.42,"z_inventory":442.0,"z_price_cuts_pct":0.27,"z_sale_to_list":0.95,"z_new_listings":116.0,"price_to_rent":11.48,"payment_vs_rent":null,"gross_rental_yield":8.71,"state_abbr":"KY","_lat":37.1,"_lon":-84.1},{"RegionName":"Albany, GA","StateName":"GA","cbsa_code":"394306","zhvi_current":168361.71,"zori_rent":1071.88,"z_inventory":531.0,"z_price_cuts_pct":0.21,"z_sale_to_list":0.99,"z_new_listings":122.0,"price_to_rent":13.09,"payment_vs_rent":null,"gross_rental_yield":7.64,"state_abbr":"GA","_lat":31.57,"_lon":-84.16},{"RegionName":"Sioux City, IA","StateName":"IA","cbsa_code":"395102","zhvi_current":225213.02,"zori_rent":1252.22,"z_inventory":401.0,"z_price_cuts_pct":0.25,"z_sale_to_list":0.98,"z_new_listings":150.0,"price_to_rent":14.99,"payment_vs_rent":null,"gross_rental_yield":6.67,"state_abbr":"IA","_lat":42.5,"_lon":-96.4},{"RegionName":"Wichita Falls, TX","StateName":"TX","cbsa_code":"395223","zhvi_current":178785.96,"zori_rent":1245.51,"z_inventory":770.0,"z_price_cuts_pct":0.2,"z_sale_to_list":0.97,"z_new_listings":198.0,"price_to_rent":11.96,"payment_vs_rent":null,"gross_rental_yield":8.36,"state_abbr":"TX","_lat":33.91,"_lon":-98.5},{"RegionName":"Texarkana, TX","StateName":"TX","cbsa_code":"395152","zhvi_current":185545.69,"zori_rent":1176.0,"z_inventory":712.0,"z_price_cuts_pct":0.18,"z_sale_to_list":null,"z_new_listings":145.0,"price_to_rent":13.15,"payment_vs_rent":null,"gross_rental_yield":7.61,"state_abbr":"TX","_lat":33.41,"_lon":-94.12},{"RegionName":"Valdosta, GA","StateName":"GA","cbsa_code":"395182","zhvi_current":226627.78,"zori_rent":1391.71,"z_inventory":712.0,"z_price_cuts_pct":0.2,"z_sale_to_list":0.98,"z_new_listings":197.0,"price_to_rent":13.57,"payment_vs_rent":null,"gross_rental_yield":7.37,"state_abbr":"GA","_lat":30.81,"_lon":-83.28},{"RegionName":"Logan, UT","StateName":"UT","cbsa_code":"394800","zhvi_current":469336.32,"zori_rent":1477.03,"z_inventory":587.0,"z_price_cuts_pct":0.27,"z_sale_to_list":0.98,"z_new_listings":195.0,"price_to_rent":26.48,"payment_vs_rent":null,"gross_rental_yield":3.78,"state_abbr":"UT","_lat":41.75,"_lon":-111.82},{"RegionName":"Flagstaff, AZ","StateName":"AZ","cbsa_code":"394595","zhvi_current":628980.9,"zori_rent":2081.39,"z_inventory":732.0,"z_price_cuts_pct":0.2,"z_sale_to_list":0.97,"z_new_listings":241.0,"price_to_rent":25.18,"payment_vs_rent":null,"gross_rental_yield":3.97,"state_abbr":"AZ","_lat":35.19,"_lon":-111.66},{"RegionName":"Rocky Mount, NC","StateName":"NC","cbsa_code":"395036","zhvi_current":201685.51,"zori_rent":1203.81,"z_inventory":519.0,"z_price_cuts_pct":0.28,"z_sale_to_list":0.95,"z_new_listings":139.0,"price_to_rent":13.96,"payment_vs_rent":null,"gross_rental_yield":7.16,"state_abbr":"NC","_lat":35.92,"_lon":-77.84},{"RegionName":"Pottsville, PA","StateName":"PA","cbsa_code":"395000","zhvi_current":168297.92,"zori_rent":1256.36,"z_inventory":416.0,"z_price_cuts_pct":0.2,"z_sale_to_list":0.98,"z_new_listings":160.0,"price_to_rent":11.16,"payment_vs_rent":null,"gross_rental_yield":8.96,"state_abbr":"PA","_lat":40.68,"_lon":-76.21},{"RegionName":"Dalton, GA","StateName":"GA","cbsa_code":"394515","zhvi_current":250372.22,"zori_rent":1419.41,"z_inventory":517.0,"z_price_cuts_pct":0.24,"z_sale_to_list":0.96,"z_new_listings":143.0,"price_to_rent":14.7,"payment_vs_rent":null,"gross_rental_yield":6.8,"state_abbr":"GA","_lat":34.77,"_lon":-84.97},{"RegionName":"Lebanon, PA","StateName":"PA","cbsa_code":"394783","zhvi_current":320715.85,"zori_rent":1348.12,"z_inventory":219.0,"z_price_cuts_pct":0.15,"z_sale_to_list":1.0,"z_new_listings":133.0,"price_to_rent":19.82,"payment_vs_rent":null,"gross_rental_yield":5.04,"state_abbr":"PA","_lat":40.34,"_lon":-76.43},{"RegionName":"Morristown, TN","StateName":"TN","cbsa_code":"394880","zhvi_current":301028.61,"zori_rent":1522.62,"z_inventory":727.0,"z_price_cuts_pct":0.3,"z_sale_to_list":0.97,"z_new_listings":208.0,"price_to_rent":16.48,"payment_vs_rent":null,"gross_rental_yield":6.07,"state_abbr":"TN","_lat":36.2,"_lon":-83.28},{"RegionName":"Winchester, VA","StateName":"VA","cbsa_code":"395232","zhvi_current":390773.4,"zori_rent":1920.37,"z_inventory":503.0,"z_price_cuts_pct":0.25,"z_sale_to_list":0.98,"z_new_listings":220.0,"price_to_rent":16.96,"payment_vs_rent":null,"gross_rental_yield":5.9,"state_abbr":"VA","_lat":39.19,"_lon":-78.18},{"RegionName":"Wheeling, WV","StateName":"OH","cbsa_code":"395221","zhvi_current":141851.57,"zori_rent":937.99,"z_inventory":393.0,"z_price_cuts_pct":0.23,"z_sale_to_list":0.96,"z_new_listings":122.0,"price_to_rent":12.6,"payment_vs_rent":null,"gross_rental_yield":7.93,"state_abbr":"OH","_lat":null,"_lon":null},{"RegionName":"Morgantown, WV","StateName":"WV","cbsa_code":"394879","zhvi_current":226952.89,"zori_rent":1530.28,"z_inventory":400.0,"z_price_cuts_pct":0.2,"z_sale_to_list":0.97,"z_new_listings":167.0,"price_to_rent":12.36,"payment_vs_rent":null,"gross_rental_yield":8.09,"state_abbr":"WV","_lat":39.64,"_lon":-80.02},{"RegionName":"La Crosse, WI","StateName":"WI","cbsa_code":"394756","zhvi_current":335329.76,"zori_rent":1148.59,"z_inventory":272.0,"z_price_cuts_pct":0.15,"z_sale_to_list":1.01,"z_new_listings":151.0,"price_to_rent":24.33,"payment_vs_rent":null,"gross_rental_yield":4.11,"state_abbr":"WI","_lat":43.8,"_lon":-91.22},{"RegionName":"Napa, CA","StateName":"CA","cbsa_code":"394900","zhvi_current":890661.73,"zori_rent":2818.0,"z_inventory":518.0,"z_price_cuts_pct":0.19,"z_sale_to_list":0.97,"z_new_listings":153.0,"price_to_rent":26.34,"payment_vs_rent":null,"gross_rental_yield":3.8,"state_abbr":"CA","_lat":38.33,"_lon":-122.31},{"RegionName":"Rapid City, SD","StateName":"SD","cbsa_code":"395013","zhvi_current":374116.92,"zori_rent":1407.98,"z_inventory":516.0,"z_price_cuts_pct":0.22,"z_sale_to_list":0.98,"z_new_listings":194.0,"price_to_rent":22.14,"payment_vs_rent":null,"gross_rental_yield":4.52,"state_abbr":"SD","_lat":44.08,"_lon":-103.2},{"RegionName":"Sumter, SC","StateName":"SC","cbsa_code":"395139","zhvi_current":210445.02,"zori_rent":1475.54,"z_inventory":515.0,"z_price_cuts_pct":0.23,"z_sale_to_list":0.97,"z_new_listings":132.0,"price_to_rent":11.89,"payment_vs_rent":null,"gross_rental_yield":8.41,"state_abbr":"SC","_lat":33.93,"_lon":-80.32},{"RegionName":"Eureka, CA","StateName":"CA","cbsa_code":"394577","zhvi_current":430853.56,"zori_rent":1471.15,"z_inventory":484.0,"z_price_cuts_pct":0.19,"z_sale_to_list":0.96,"z_new_listings":137.0,"price_to_rent":24.41,"payment_vs_rent":null,"gross_rental_yield":4.1,"state_abbr":"CA","_lat":40.78,"_lon":-124.16},{"RegionName":"Springfield, OH","StateName":"OH","cbsa_code":"395117","zhvi_current":202801.75,"zori_rent":1223.18,"z_inventory":345.0,"z_price_cuts_pct":0.24,"z_sale_to_list":0.98,"z_new_listings":150.0,"price_to_rent":13.82,"payment_vs_rent":null,"gross_rental_yield":7.24,"state_abbr":"OH","_lat":39.92,"_lon":-83.81},{"RegionName":"Harrisonburg, VA","StateName":"VA","cbsa_code":"394668","zhvi_current":352185.34,"zori_rent":1785.02,"z_inventory":247.0,"z_price_cuts_pct":0.18,"z_sale_to_list":0.98,"z_new_listings":113.0,"price_to_rent":16.44,"payment_vs_rent":null,"gross_rental_yield":6.08,"state_abbr":"VA","_lat":38.45,"_lon":-78.87},{"RegionName":"Battle Creek, MI","StateName":"MI","cbsa_code":"394368","zhvi_current":189677.21,"zori_rent":1152.02,"z_inventory":364.0,"z_price_cuts_pct":0.24,"z_sale_to_list":0.97,"z_new_listings":151.0,"price_to_rent":13.72,"payment_vs_rent":null,"gross_rental_yield":7.29,"state_abbr":"MI","_lat":42.31,"_lon":-85.14},{"RegionName":"Sherman, TX","StateName":"TX","cbsa_code":"395094","zhvi_current":291269.26,"zori_rent":1384.78,"z_inventory":1417.0,"z_price_cuts_pct":0.28,"z_sale_to_list":0.96,"z_new_listings":313.0,"price_to_rent":17.53,"payment_vs_rent":null,"gross_rental_yield":5.71,"state_abbr":"TX","_lat":33.64,"_lon":-96.61},{"RegionName":"Manhattan, KS","StateName":"KS","cbsa_code":"394821","zhvi_current":269856.39,"zori_rent":1231.39,"z_inventory":497.0,"z_price_cuts_pct":0.21,"z_sale_to_list":0.98,"z_new_listings":209.0,"price_to_rent":18.26,"payment_vs_rent":null,"gross_rental_yield":5.48,"state_abbr":"KS","_lat":39.19,"_lon":-96.59},{"RegionName":"Carbondale, IL","StateName":"IL","cbsa_code":"394442","zhvi_current":154420.69,"zori_rent":895.83,"z_inventory":537.0,"z_price_cuts_pct":0.21,"z_sale_to_list":0.95,"z_new_listings":156.0,"price_to_rent":14.36,"payment_vs_rent":null,"gross_rental_yield":6.96,"state_abbr":"IL","_lat":37.72,"_lon":-89.22},